{
  "type": "FeatureCollection",
  "name": "tokyo_schools",
  "crs": {
    "type": "name",
    "properties": {
      "name": "urn:ogc:def:crs:OGC:1.3:CRS84"
    }
  },
  "features": [
    {
      "type": "Feature",
      "properties": {
        "id": "0028f266-4703-40fc-b027-f6a9bb0b8e66",
        "name": "豊島区立富士見台小学校",
        "confidence": 0.9631852430105209,
        "address_freeform": "東京都豊島区南長崎１丁目１０−５",
        "address_locality": "豊島区",
        "address_postcode": "171-0052"
      },
      "geometry": {
        "type": "Point",
        "coordinates": [
          139.69300599,
          35.72477571
        ]
      }
    },
    {
      "type": "Feature",
      "properties": {
        "id": "0036772c-0c6a-4a84-a168-95f8f2097d0b",
        "name": "ちいさなピカソ（親と子の絵画・造形）",
        "confidence": 0.7336856722831726,
        "address_freeform": "高輪1-16-25",
        "address_locality": "港区",
        "address_postcode": "108-0074"
      },
      "geometry": {
        "type": "Point",
        "coordinates": [
          139.73725,
          35.6388
        ]
      }
    },
    {
      "type": "Feature",
      "properties": {
        "id": "0092064c-395c-4a6d-bcb7-77222dbdedf1",
        "name": "Nippon Rikkokai",
        "confidence": 0.5437503457069397,
        "address_freeform": "2 Chome-43-12 Kotakecho",
        "address_locality": "練馬区",
        "address_postcode": "176-0004"
      },
      "geometry": {
        "type": "Point",
        "coordinates": [
          139.67523122,
          35.74204288
        ]
      }
    },
    {
      "type": "Feature",
      "properties": {
        "id": "00a22d41-e8e5-4d13-a3a9-78508e8af975",
        "name": "東京フラワーマーケット カルチャースクール",
        "confidence": 0.48233965039253235,
        "address_freeform": "東京都江戸川区中葛西３丁目３５−１４",
        "address_locality": "江戸川区",
        "address_postcode": "134-0083"
      },
      "geometry": {
        "type": "Point",
        "coordinates": [
          139.87208083,
          35.66412752
        ]
      }
    },
    {
      "type": "Feature",
      "properties": {
        "id": "00bc3bf4-01fd-4367-86e9-b821e6965a48",
        "name": "高井戸児童館",
        "confidence": 0.9530829191207886,
        "address_freeform": "東京都杉並区高井戸西２丁目５−１０",
        "address_locality": "杉並区",
        "address_postcode": "168-0071"
      },
      "geometry": {
        "type": "Point",
        "coordinates": [
          139.61221788158,
          35.68414466801
        ]
      }
    },
    {
      "type": "Feature",
      "properties": {
        "id": "00ea5e3c-813f-43d7-8bef-bc372746d583",
        "name": "石戸珠算学園　東日本橋教室",
        "confidence": 0.9222947359085083,
        "address_freeform": "中央区日本橋久松町11-8 日本橋118ビル2階Ａ",
        "address_locality": "中央区",
        "address_postcode": "1340084"
      },
      "geometry": {
        "type": "Point",
        "coordinates": [
          139.78478377248,
          35.689639204949
        ]
      }
    },
    {
      "type": "Feature",
      "properties": {
        "id": "014f234d-3bd8-49dc-b5c5-ddaa294accfa",
        "name": "speek",
        "confidence": 0.6116926670074463,
        "address_freeform": "銀座6-13-16",
        "address_locality": "中央区",
        "address_postcode": "104-0061"
      },
      "geometry": {
        "type": "Point",
        "coordinates": [
          139.76742580881,
          35.675630313049
        ]
      }
    },
    {
      "type": "Feature",
      "properties": {
        "id": "01895e12-84b4-49ef-9b6d-4fb7f91032a6",
        "name": "Bambini International Montessori School",
        "confidence": 0.9104976654052734,
        "address_freeform": "6 Chome-22-19-2 Kamiyoga",
        "address_locality": "世田谷区",
        "address_postcode": "158-0098"
      },
      "geometry": {
        "type": "Point",
        "coordinates": [
          139.623642,
          35.63640014
        ]
      }
    },
    {
      "type": "Feature",
      "properties": {
        "id": "019c591b-987e-4055-9eba-3286cd741000",
        "name": "西新井中学校",
        "confidence": 0.9650841355323792,
        "address_freeform": "東京都足立区西新井７丁目２２−１",
        "address_locality": "足立区",
        "address_postcode": "123-0841"
      },
      "geometry": {
        "type": "Point",
        "coordinates": [
          139.771256,
          35.782701
        ]
      }
    },
    {
      "type": "Feature",
      "properties": {
        "id": "024f6273-2a30-4f8e-85fc-1c0bb5338894",
        "name": "大田区大森町の個別指導塾 学習塾｜英才個別学院 大森町校",
        "confidence": 0.7147371768951416,
        "address_freeform": "大森西5-29-10",
        "address_locality": "大田区",
        "address_postcode": "143-0015"
      },
      "geometry": {
        "type": "Point",
        "coordinates": [
          139.73486,
          35.56782
        ]
      }
    },
    {
      "type": "Feature",
      "properties": {
        "id": "02eb2153-e773-4f8e-a837-8eed7c04e12d",
        "name": "Anabuki College Japanese Tokushima",
        "confidence": 0.9157291054725647,
        "address_freeform": "2-20",
        "address_locality": "台東区",
        "address_postcode": "770-0852"
      },
      "geometry": {
        "type": "Point",
        "coordinates": [
          139.7801658,
          35.6989944
        ]
      }
    },
    {
      "type": "Feature",
      "properties": {
        "id": "0306dd7b-6aaa-4200-9747-eb09762c26f2",
        "name": "Lexus Medical and Dental University Exam Prep Course",
        "confidence": 0.461778849363327,
        "address_freeform": "29-7 Sakuragaokacho",
        "address_locality": "渋谷区",
        "address_postcode": "150-0031"
      },
      "geometry": {
        "type": "Point",
        "coordinates": [
          139.69948597,
          35.65492216
        ]
      }
    },
    {
      "type": "Feature",
      "properties": {
        "id": "0308b2fb-7513-4682-a444-48d87129f834",
        "name": "แหล่งทุนญี่ปุ่น",
        "confidence": 0.017912881448864937,
        "address_freeform": null,
        "address_locality": "渋谷区",
        "address_postcode": null
      },
      "geometry": {
        "type": "Point",
        "coordinates": [
          139.69994446075,
          35.659892047265
        ]
      }
    },
    {
      "type": "Feature",
      "properties": {
        "id": "0310d475-4ce2-4ce5-993e-6a8f7a36b1ca",
        "name": "奥田 開業実践塾",
        "confidence": 0.5357289910316467,
        "address_freeform": "神田須田町1-8-3",
        "address_locality": "千代田区",
        "address_postcode": "104-0061"
      },
      "geometry": {
        "type": "Point",
        "coordinates": [
          139.77074861526,
          35.695573779421
        ]
      }
    },
    {
      "type": "Feature",
      "properties": {
        "id": "0323c2d7-cae1-440e-96ab-e161d14d5045",
        "name": "橋口孝司・燻製料理とお酒の教室",
        "confidence": 0.7771011590957642,
        "address_freeform": "港区西麻布1-2-3 アクティブ六本木203",
        "address_locality": "港区",
        "address_postcode": "106-0031"
      },
      "geometry": {
        "type": "Point",
        "coordinates": [
          139.73712158203,
          35.649295806885
        ]
      }
    },
    {
      "type": "Feature",
      "properties": {
        "id": "033782f2-c4ab-4365-b896-ac8d7d7cda97",
        "name": "港区立青山小学校",
        "confidence": 0.9796233773231506,
        "address_freeform": "東京都港区南青山２丁目２１−２",
        "address_locality": "港区",
        "address_postcode": "107-0062"
      },
      "geometry": {
        "type": "Point",
        "coordinates": [
          139.71897484,
          35.669981
        ]
      }
    },
    {
      "type": "Feature",
      "properties": {
        "id": "03cd21f8-81cc-44e1-93f4-481623ec4219",
        "name": "J-Frontage Football School",
        "confidence": 0.5784988403320312,
        "address_freeform": "東池袋1丁目5-7",
        "address_locality": "豊島区",
        "address_postcode": "170-0013"
      },
      "geometry": {
        "type": "Point",
        "coordinates": [
          139.71372967,
          35.73092276
        ]
      }
    },
    {
      "type": "Feature",
      "properties": {
        "id": "03e0356d-c3ea-4502-bb19-53f0f0d83d92",
        "name": "キュリアスゼミナール",
        "confidence": 0.5476857423782349,
        "address_freeform": "東京都豊島区西池袋4-28-13 パークサイド西池",
        "address_locality": "豊島区",
        "address_postcode": "171-0021"
      },
      "geometry": {
        "type": "Point",
        "coordinates": [
          139.6990625,
          35.7273867
        ]
      }
    },
    {
      "type": "Feature",
      "properties": {
        "id": "03f43827-f2a3-4018-8904-fcb67499b43b",
        "name": "GeekSalon Tokyo",
        "confidence": 0.8524307012557983,
        "address_freeform": "Kamimeguro, 1 Chome−26−9 Nakameguro Okura Bldg., 3階",
        "address_locality": "目黒区",
        "address_postcode": "153-0051"
      },
      "geometry": {
        "type": "Point",
        "coordinates": [
          139.70053766,
          35.64334913
        ]
      }
    },
    {
      "type": "Feature",
      "properties": {
        "id": "04534ab3-3e73-48de-b466-214b9837e6fe",
        "name": "IT寺子屋",
        "confidence": 0.721730649471283,
        "address_freeform": null,
        "address_locality": "渋谷区",
        "address_postcode": null
      },
      "geometry": {
        "type": "Point",
        "coordinates": [
          139.69802856445,
          35.668174790849
        ]
      }
    },
    {
      "type": "Feature",
      "properties": {
        "id": "0458f8e4-117b-43ca-8354-be36a6d22022",
        "name": "日本一厳しい簿記スクール",
        "confidence": 0.21016253530979156,
        "address_freeform": "渋谷２−１９−１５宮益坂ビルディング６０９",
        "address_locality": "渋谷区",
        "address_postcode": "150-0002"
      },
      "geometry": {
        "type": "Point",
        "coordinates": [
          139.7054207325,
          35.660293879112
        ]
      }
    },
    {
      "type": "Feature",
      "properties": {
        "id": "046eece1-4478-401b-b638-59c8f6fc125d",
        "name": "一社）民事信託推進センター",
        "confidence": 0.26520857214927673,
        "address_freeform": "東京都中央区銀座",
        "address_locality": "中央区",
        "address_postcode": "104-0061"
      },
      "geometry": {
        "type": "Point",
        "coordinates": [
          139.7626119,
          35.6677367
        ]
      }
    },
    {
      "type": "Feature",
      "properties": {
        "id": "04ae1968-def7-4fca-b188-c92f06e6b05e",
        "name": "スモールトレイン 五反田校",
        "confidence": 0.8404502868652344,
        "address_freeform": "東京都品川区西五反田2-25-1",
        "address_locality": "品川区",
        "address_postcode": "141-0031"
      },
      "geometry": {
        "type": "Point",
        "coordinates": [
          139.7195594,
          35.6254789
        ]
      }
    },
    {
      "type": "Feature",
      "properties": {
        "id": "04cf8f56-b70a-4172-ba72-0a6229eae2da",
        "name": "Hakubikyotokimonogakuin Ikebukuro School",
        "confidence": 0.15898820757865906,
        "address_freeform": "Higashiikebukuro, 1 Chome−41−6 菊邑91ビル 6F",
        "address_locality": "豊島区",
        "address_postcode": "170-0013"
      },
      "geometry": {
        "type": "Point",
        "coordinates": [
          139.71289237,
          35.73151149
        ]
      }
    },
    {
      "type": "Feature",
      "properties": {
        "id": "04dbc83d-c0e9-4ae8-b1e5-8ac13b99ce7c",
        "name": "渋谷の彫金教室 studio crucible | スタジオ クルーシブル",
        "confidence": 0.7253267168998718,
        "address_freeform": "東京都渋谷区渋谷１丁目１０−６",
        "address_locality": "渋谷区",
        "address_postcode": "150-0002"
      },
      "geometry": {
        "type": "Point",
        "coordinates": [
          139.70508039,
          35.660468
        ]
      }
    },
    {
      "type": "Feature",
      "properties": {
        "id": "04e4be16-bac0-4d74-9be2-cd7d76a7ca20",
        "name": "アンメット子供教室　センター南校",
        "confidence": 0.7702727317810059,
        "address_freeform": "神奈川県",
        "address_locality": "横浜市都筑区",
        "address_postcode": "224-0032"
      },
      "geometry": {
        "type": "Point",
        "coordinates": [
          139.57080078125,
          35.542448520157
        ]
      }
    },
    {
      "type": "Feature",
      "properties": {
        "id": "04e6ffe0-c260-4377-ba3d-1ef4ffe168ec",
        "name": "黒田キックスクール",
        "confidence": 0.8084933161735535,
        "address_freeform": "池袋２－１４－１０－Ｂ１　パラエストラ池袋内",
        "address_locality": "豊島区",
        "address_postcode": "171-0014"
      },
      "geometry": {
        "type": "Point",
        "coordinates": [
          139.70661322788,
          35.732182332032
        ]
      }
    },
    {
      "type": "Feature",
      "properties": {
        "id": "04f32456-75f5-4c8e-8a8e-25bd30bef8a0",
        "name": "Nanofun academy キッズプログラミングスクール",
        "confidence": 0.589323878288269,
        "address_freeform": "東京都世田谷区南烏山 6-12-12 コーシャハイム千歳烏山 12 号棟 1F（コミュニティカフェななつのこ内）",
        "address_locality": "世田谷区",
        "address_postcode": "1570065"
      },
      "geometry": {
        "type": "Point",
        "coordinates": [
          139.60047125816,
          35.665333263243
        ]
      }
    },
    {
      "type": "Feature",
      "properties": {
        "id": "04faaa75-d8d2-410c-811d-8d3832a445df",
        "name": "A Academia Americana Da Guitarra",
        "confidence": 0.7040675282478333,
        "address_freeform": null,
        "address_locality": "荒川区",
        "address_postcode": null
      },
      "geometry": {
        "type": "Point",
        "coordinates": [
          139.76211,
          35.73056
        ]
      }
    },
    {
      "type": "Feature",
      "properties": {
        "id": "0520060a-978a-42b0-b341-77b16d890a1d",
        "name": "めぐろ学校サポートセンター",
        "confidence": 0.7699346542358398,
        "address_freeform": "Nakameguro, 3 Chome−6−10 学校サポートセンタ めぐろ",
        "address_locality": "目黒区",
        "address_postcode": "153-0061"
      },
      "geometry": {
        "type": "Point",
        "coordinates": [
          139.70292083,
          35.63921893
        ]
      }
    },
    {
      "type": "Feature",
      "properties": {
        "id": "052c8d2e-4d1c-4cc0-bee1-0a5fc6fd68b9",
        "name": "Draw Flower School Tokyo",
        "confidence": 0.937838613986969,
        "address_freeform": "恵比寿2-24-1",
        "address_locality": "港区",
        "address_postcode": "150-0013"
      },
      "geometry": {
        "type": "Point",
        "coordinates": [
          139.7343811,
          35.6545869
        ]
      }
    },
    {
      "type": "Feature",
      "properties": {
        "id": "055dc828-79f8-4e4f-a3ff-201815c7356e",
        "name": "鹿島学園高等学校北千住キャンパス",
        "confidence": 0.9202756285667419,
        "address_freeform": "東京都足立区千住３丁目１",
        "address_locality": "足立区",
        "address_postcode": "120-0034"
      },
      "geometry": {
        "type": "Point",
        "coordinates": [
          139.80046245,
          35.75116306
        ]
      }
    },
    {
      "type": "Feature",
      "properties": {
        "id": "05ad0db9-8086-43f3-93c6-6d115bb67698",
        "name": "スクールPTI",
        "confidence": 0.4563980996608734,
        "address_freeform": "吉祥寺南町1丁目27-1",
        "address_locality": "武蔵野市",
        "address_postcode": "180-0003"
      },
      "geometry": {
        "type": "Point",
        "coordinates": [
          139.58135815,
          35.70130062
        ]
      }
    },
    {
      "type": "Feature",
      "properties": {
        "id": "05b1d280-23ee-45f2-92f2-6d6f0b029936",
        "name": "セルモ 東十条教室",
        "confidence": 0.4883662164211273,
        "address_freeform": "1 Chome-18-1 Higashijujo",
        "address_locality": "北区",
        "address_postcode": "114-0001"
      },
      "geometry": {
        "type": "Point",
        "coordinates": [
          139.73019102,
          35.76182502
        ]
      }
    },
    {
      "type": "Feature",
      "properties": {
        "id": "05d207bc-ad24-4db5-aa42-1248822b93c7",
        "name": "Nihon University Oumon Hall",
        "confidence": 0.9451515078544617,
        "address_freeform": "2-6 Gobancho",
        "address_locality": "千代田区",
        "address_postcode": "102-0076"
      },
      "geometry": {
        "type": "Point",
        "coordinates": [
          139.73504757,
          35.69051022
        ]
      }
    },
    {
      "type": "Feature",
      "properties": {
        "id": "063f0c38-e6e5-48dd-9ff8-fe196de30c5a",
        "name": "Les Doigts",
        "confidence": 0.26541316509246826,
        "address_freeform": "Aobadai, 1 Chome−16−9 サクラガーデン B1",
        "address_locality": "目黒区",
        "address_postcode": "153-0042"
      },
      "geometry": {
        "type": "Point",
        "coordinates": [
          139.69674867,
          35.64722861
        ]
      }
    },
    {
      "type": "Feature",
      "properties": {
        "id": "064433bd-f818-4c8d-aba2-6e7eac773d64",
        "name": "東京整体学院いろは学舎",
        "confidence": 0.7065656781196594,
        "address_freeform": "Akabane, 3 Chome−3−3 ドミール赤羽 2F",
        "address_locality": "北区",
        "address_postcode": "115-0045"
      },
      "geometry": {
        "type": "Point",
        "coordinates": [
          139.71910996,
          35.78281374
        ]
      }
    },
    {
      "type": "Feature",
      "properties": {
        "id": "06ed1b46-43f1-422d-9927-54f5dc0777bd",
        "name": "イケバナアトリウム",
        "confidence": 0.6841580271720886,
        "address_freeform": "東京都港区高輪３丁目１３−１",
        "address_locality": "港区",
        "address_postcode": "108-0074"
      },
      "geometry": {
        "type": "Point",
        "coordinates": [
          139.73568797,
          35.6309242
        ]
      }
    },
    {
      "type": "Feature",
      "properties": {
        "id": "0709d119-1b7f-485d-ac46-af19ac36e60e",
        "name": "いたもと算数教室",
        "confidence": 0.8564140200614929,
        "address_freeform": "1751 Shimonumabe",
        "address_locality": "川崎市中原区",
        "address_postcode": "211-0011"
      },
      "geometry": {
        "type": "Point",
        "coordinates": [
          139.66713277,
          35.57355808
        ]
      }
    },
    {
      "type": "Feature",
      "properties": {
        "id": "071ab6ae-c4a0-4411-a02d-5cbb698b6797",
        "name": "わだえみのわいん塾",
        "confidence": 0.9048556089401245,
        "address_freeform": "Yotsuya, 2 Chome−14 白馬ビル 501",
        "address_locality": "新宿区",
        "address_postcode": "160-0004"
      },
      "geometry": {
        "type": "Point",
        "coordinates": [
          139.72382696,
          35.68746954
        ]
      }
    },
    {
      "type": "Feature",
      "properties": {
        "id": "071e35b4-ea0a-4279-ab2b-c4f18a6d0fca",
        "name": "WEデザインスクール",
        "confidence": 0.7252164483070374,
        "address_freeform": "赤坂9丁目7番号ミッドタウンタワー5階",
        "address_locality": "港区",
        "address_postcode": "107-6205"
      },
      "geometry": {
        "type": "Point",
        "coordinates": [
          139.7310625,
          35.6658133
        ]
      }
    },
    {
      "type": "Feature",
      "properties": {
        "id": "0777602f-5921-4464-bd64-c325b11c7b21",
        "name": "Blossoms International School ブロッサムズ　インターナショナル　スクール",
        "confidence": 0.9401277899742126,
        "address_freeform": "佃3-2-10",
        "address_locality": "中央区",
        "address_postcode": "104-0051"
      },
      "geometry": {
        "type": "Point",
        "coordinates": [
          139.7866378,
          35.6654039
        ]
      }
    },
    {
      "type": "Feature",
      "properties": {
        "id": "077ed42c-a03f-47ed-a515-7f45a470cb17",
        "name": "スタジオアロイ タイ料理教室",
        "confidence": 0.6592708230018616,
        "address_freeform": "東京都大田区仲六郷２丁目５−１",
        "address_locality": "大田区",
        "address_postcode": "144-0055"
      },
      "geometry": {
        "type": "Point",
        "coordinates": [
          139.6953844,
          35.6074778
        ]
      }
    },
    {
      "type": "Feature",
      "properties": {
        "id": "07dba344-5fb2-4e12-8a07-3300318e1873",
        "name": "大森三中",
        "confidence": 0.8290413618087769,
        "address_freeform": null,
        "address_locality": "大田区",
        "address_postcode": null
      },
      "geometry": {
        "type": "Point",
        "coordinates": [
          139.71590315341,
          35.580294409667
        ]
      }
    },
    {
      "type": "Feature",
      "properties": {
        "id": "07ee2b1b-c719-489f-b0ea-f65d0a9e4464",
        "name": "CheeRing School",
        "confidence": 0.8676047325134277,
        "address_freeform": "東京都豊島区巣鴨1-9-1",
        "address_locality": "文京区",
        "address_postcode": "170-0002"
      },
      "geometry": {
        "type": "Point",
        "coordinates": [
          139.75073933601,
          35.724757639051
        ]
      }
    },
    {
      "type": "Feature",
      "properties": {
        "id": "08284084-0d91-4fb7-8902-b498742d74bb",
        "name": "練馬区農の学校",
        "confidence": 0.7691584229469299,
        "address_freeform": null,
        "address_locality": "練馬区",
        "address_postcode": null
      },
      "geometry": {
        "type": "Point",
        "coordinates": [
          139.61850367149964,
          35.74935929423029
        ]
      }
    },
    {
      "type": "Feature",
      "properties": {
        "id": "085be53d-318d-4632-a786-a78fb1a64f57",
        "name": "グアム大学日本事務局",
        "confidence": 0.5418586730957031,
        "address_freeform": "東京都港区虎ノ門１丁目１５−７",
        "address_locality": "港区",
        "address_postcode": "105-0001"
      },
      "geometry": {
        "type": "Point",
        "coordinates": [
          139.74903045,
          35.66880903
        ]
      }
    },
    {
      "type": "Feature",
      "properties": {
        "id": "086578b3-cc73-4482-8523-e59e5f993604",
        "name": "墨田パソコン教室 東あずま駅前校",
        "confidence": 0.9832694804668427,
        "address_freeform": "東京都墨田区立花1-23-3",
        "address_locality": "墨田区",
        "address_postcode": "131-0043"
      },
      "geometry": {
        "type": "Point",
        "coordinates": [
          139.8305094,
          35.7067572
        ]
      }
    },
    {
      "type": "Feature",
      "properties": {
        "id": "0883500f-e572-4063-8704-108b31540857",
        "name": "パソコン市民ＩＴ講座　梅島教室",
        "confidence": 0.5736484527587891,
        "address_freeform": "梅島1-12-12-6F",
        "address_locality": "足立区",
        "address_postcode": "121-0816"
      },
      "geometry": {
        "type": "Point",
        "coordinates": [
          139.80187,
          35.76937
        ]
      }
    },
    {
      "type": "Feature",
      "properties": {
        "id": "088625d6-4fd9-40d1-90bd-c2ee2daef56e",
        "name": "興本小学校",
        "confidence": 0.7987009882926941,
        "address_freeform": "東京都足立区扇３丁目２２−１",
        "address_locality": "足立区",
        "address_postcode": "123-0873"
      },
      "geometry": {
        "type": "Point",
        "coordinates": [
          139.77363454,
          35.77250461
        ]
      }
    },
    {
      "type": "Feature",
      "properties": {
        "id": "089a151a-e401-4b80-ad1d-57bd7fbabcbd",
        "name": "Nogata English School",
        "confidence": 0.8073161840438843,
        "address_freeform": "野方5-30-20",
        "address_locality": "中野区",
        "address_postcode": "165-0027"
      },
      "geometry": {
        "type": "Point",
        "coordinates": [
          139.667,
          35.7167
        ]
      }
    },
    {
      "type": "Feature",
      "properties": {
        "id": "08fbeeaf-2142-4d16-9a7b-d7beea890167",
        "name": "上高田本通り",
        "confidence": 0.8007852435112,
        "address_freeform": null,
        "address_locality": "中野区",
        "address_postcode": null
      },
      "geometry": {
        "type": "Point",
        "coordinates": [
          139.6727078,
          35.713348
        ]
      }
    },
    {
      "type": "Feature",
      "properties": {
        "id": "09081cd7-9655-43e6-bb5e-12abf5e300b9",
        "name": "北区立岩淵小学校",
        "confidence": 0.77,
        "address_freeform": "岩淵町6-6",
        "address_locality": "北区",
        "address_postcode": "115-0041"
      },
      "geometry": {
        "type": "Point",
        "coordinates": [
          139.72613006830215,
          35.78449673927717
        ]
      }
    },
    {
      "type": "Feature",
      "properties": {
        "id": "092e7b9f-8d14-4c6b-b834-51cc36980fa2",
        "name": "将棋道場・将棋教室溝ノ口棋道館",
        "confidence": 0.5442471504211426,
        "address_freeform": "神奈川県川崎市高津区坂戸１丁目７−６",
        "address_locality": "川崎市高津区",
        "address_postcode": "213-0012"
      },
      "geometry": {
        "type": "Point",
        "coordinates": [
          139.619338,
          35.599108
        ]
      }
    },
    {
      "type": "Feature",
      "properties": {
        "id": "095ccfbf-7a4b-4979-b291-c38d5cfe7c64",
        "name": "桜坂トーストマスターズクラブ〜話し方で四季を彩る〜",
        "confidence": 0.6564579010009766,
        "address_freeform": "東京都大田区田園調布1-53-10 せせらぎ公園内 会議室",
        "address_locality": "大田区",
        "address_postcode": null
      },
      "geometry": {
        "type": "Point",
        "coordinates": [
          139.6697436,
          35.5900133
        ]
      }
    },
    {
      "type": "Feature",
      "properties": {
        "id": "09c40d12-bb27-4e3f-a1b6-1844f8d3c399",
        "name": "公文式同潤会通り教室",
        "confidence": 0.7100096940994263,
        "address_freeform": "松江2-28-2-101",
        "address_locality": "江戸川区",
        "address_postcode": null
      },
      "geometry": {
        "type": "Point",
        "coordinates": [
          139.87582599757,
          35.703486437011
        ]
      }
    },
    {
      "type": "Feature",
      "properties": {
        "id": "09df46ff-f99c-401e-ac27-21c25c92825d",
        "name": "楽読 お茶の水・東京八重洲スクール",
        "confidence": 0.6697138547897339,
        "address_freeform": "神田駿河台1−8　駿河台ARAIビル4F",
        "address_locality": "千代田区",
        "address_postcode": "101-0062"
      },
      "geometry": {
        "type": "Point",
        "coordinates": [
          139.76253128052,
          35.697834520952
        ]
      }
    },
    {
      "type": "Feature",
      "properties": {
        "id": "0a9e38de-dbd6-48e0-96ca-ff17a345d5b4",
        "name": "実戦空手道勇道会館",
        "confidence": 0.9198984503746033,
        "address_freeform": "埼玉県新座市畑中１丁目１１−５０",
        "address_locality": "新座市",
        "address_postcode": "352-0012"
      },
      "geometry": {
        "type": "Point",
        "coordinates": [
          139.57218689,
          35.78977414
        ]
      }
    },
    {
      "type": "Feature",
      "properties": {
        "id": "0aa91ada-c677-4373-914c-09ea29181141",
        "name": "麹町学園",
        "confidence": 0.9922606003284454,
        "address_freeform": "東京都千代田区麹町３丁目８",
        "address_locality": "千代田区",
        "address_postcode": "102-0083"
      },
      "geometry": {
        "type": "Point",
        "coordinates": [
          139.73901722,
          35.68480515
        ]
      }
    },
    {
      "type": "Feature",
      "properties": {
        "id": "0afdca79-f040-4522-a0aa-209d8045d5b3",
        "name": "秀進アカデミー荏原中延校",
        "confidence": 0.9739131331443787,
        "address_freeform": "2 Chome-5-17 Nakanobu",
        "address_locality": "品川区",
        "address_postcode": "142-0053"
      },
      "geometry": {
        "type": "Point",
        "coordinates": [
          139.71053467,
          35.61104268
        ]
      }
    },
    {
      "type": "Feature",
      "properties": {
        "id": "0b072198-6fd1-4d9f-a708-fe8696376140",
        "name": "資格の学校TAC",
        "confidence": 0.5219646096229553,
        "address_freeform": "東京都新宿区戸塚町１丁目１０１−１６",
        "address_locality": "新宿区",
        "address_postcode": "169-0071"
      },
      "geometry": {
        "type": "Point",
        "coordinates": [
          139.72004576,
          35.70781419
        ]
      }
    },
    {
      "type": "Feature",
      "properties": {
        "id": "0bd7a9c4-2f06-4c41-ab1a-9da177afc551",
        "name": "稲弓会",
        "confidence": 0.8143558502197266,
        "address_freeform": "東伏見3－5－7",
        "address_locality": "西東京市",
        "address_postcode": "202-21"
      },
      "geometry": {
        "type": "Point",
        "coordinates": [
          139.56758,
          35.72134
        ]
      }
    },
    {
      "type": "Feature",
      "properties": {
        "id": "0bdb9b76-35d4-4850-8cfb-fb3b72b296f9",
        "name": "E&G アカデミー",
        "confidence": 0.9788574576377869,
        "address_freeform": "新宿区新宿1丁目４－８　新宿小川ビル６Ｆ",
        "address_locality": "中央区",
        "address_postcode": "160-0022"
      },
      "geometry": {
        "type": "Point",
        "coordinates": [
          139.72043958180154,
          35.67151231362173
        ]
      }
    },
    {
      "type": "Feature",
      "properties": {
        "id": "0c0197ee-d95d-4b50-8a8e-182ef02bcfc3",
        "name": "元気日本語文化学校東京校",
        "confidence": 0.6058315634727478,
        "address_freeform": "東京都新宿区新宿５丁目１７−６",
        "address_locality": "新宿区",
        "address_postcode": "160-0022"
      },
      "geometry": {
        "type": "Point",
        "coordinates": [
          139.70593793,
          35.69300056
        ]
      }
    },
    {
      "type": "Feature",
      "properties": {
        "id": "0c149b17-e178-42a4-a41b-36d524aab52a",
        "name": "Mgtカレッジ",
        "confidence": 0.5529070496559143,
        "address_freeform": "西新宿7丁目4-4 武蔵ビル2F",
        "address_locality": "新宿区",
        "address_postcode": "160-0023"
      },
      "geometry": {
        "type": "Point",
        "coordinates": [
          139.69853083171,
          35.695906183756
        ]
      }
    },
    {
      "type": "Feature",
      "properties": {
        "id": "0c180fd5-8565-4272-a93e-9a8e24951e32",
        "name": "Iid 世田谷ものづくり学校",
        "confidence": 0.9379413723945618,
        "address_freeform": "東京都世田谷区池尻２丁目４−５",
        "address_locality": "世田谷区",
        "address_postcode": "154-0001"
      },
      "geometry": {
        "type": "Point",
        "coordinates": [
          139.680818,
          35.64617
        ]
      }
    },
    {
      "type": "Feature",
      "properties": {
        "id": "0c49a149-ad13-452e-9d2d-6e5a0d68dabe",
        "name": "将棋の森＠吉祥寺",
        "confidence": 0.988418510556221,
        "address_freeform": "吉祥寺本町1-31-11　KSビル703",
        "address_locality": "武蔵野市",
        "address_postcode": "1800004"
      },
      "geometry": {
        "type": "Point",
        "coordinates": [
          139.58256565,
          35.70358458
        ]
      }
    },
    {
      "type": "Feature",
      "properties": {
        "id": "0c4cee06-4c31-43e0-9ace-0fa686f1ff3b",
        "name": "いきるちから",
        "confidence": 0.5268815159797668,
        "address_freeform": null,
        "address_locality": "港区",
        "address_postcode": null
      },
      "geometry": {
        "type": "Point",
        "coordinates": [
          139.72358447,
          35.659153710000005
        ]
      }
    },
    {
      "type": "Feature",
      "properties": {
        "id": "0c56b494-a0dc-4434-af20-7c7e6dea9ab1",
        "name": "ナガセPcスクール銀座校",
        "confidence": 0.6866942644119263,
        "address_freeform": "東京都中央区銀座４丁目６−１１",
        "address_locality": "中央区",
        "address_postcode": "104-0061"
      },
      "geometry": {
        "type": "Point",
        "coordinates": [
          139.76558009,
          35.67117504
        ]
      }
    },
    {
      "type": "Feature",
      "properties": {
        "id": "0c67e981-427f-461a-8af0-a6a045c8fff5",
        "name": "Yoji Sansuu School Spica",
        "confidence": 0.9542718529701233,
        "address_freeform": "Ebisu, 1 Chome−15−4 三木ビル 201",
        "address_locality": "渋谷区",
        "address_postcode": "150-0013"
      },
      "geometry": {
        "type": "Point",
        "coordinates": [
          139.71226324,
          35.64760676
        ]
      }
    },
    {
      "type": "Feature",
      "properties": {
        "id": "0cb617e9-a889-45cd-a2ab-106d1fac5f3e",
        "name": "品川区立 三木小学校",
        "confidence": 0.77,
        "address_freeform": "西品川3-16-28",
        "address_locality": "品川区",
        "address_postcode": "141-0033"
      },
      "geometry": {
        "type": "Point",
        "coordinates": [
          139.72681649411638,
          35.61533087389455
        ]
      }
    },
    {
      "type": "Feature",
      "properties": {
        "id": "0cc549df-281c-40cb-b9fe-95bcb45e9ccc",
        "name": "日本大学 國學院大學 発祥記念碑",
        "confidence": 0.7806454300880432,
        "address_freeform": "3 Chome-5 Iidabashi",
        "address_locality": "千代田区",
        "address_postcode": "102-0072"
      },
      "geometry": {
        "type": "Point",
        "coordinates": [
          139.7468142,
          35.70124696
        ]
      }
    },
    {
      "type": "Feature",
      "properties": {
        "id": "0cd8a4c0-6ef3-4551-82b1-fee852e22d32",
        "name": "Apprecie Academy / アプリシエ アカデミー",
        "confidence": 0.9278402924537659,
        "address_freeform": "神奈川県横浜市都筑区桜並木１２−３７",
        "address_locality": "横浜市都筑区",
        "address_postcode": "224-0046"
      },
      "geometry": {
        "type": "Point",
        "coordinates": [
          139.5802472,
          35.5357106
        ]
      }
    },
    {
      "type": "Feature",
      "properties": {
        "id": "0ce57697-6fff-4005-bbae-fe274abf2f94",
        "name": "白金台医進予備校シナプス",
        "confidence": 0.8498219847679138,
        "address_freeform": "東京都",
        "address_locality": "品川区",
        "address_postcode": "1410022"
      },
      "geometry": {
        "type": "Point",
        "coordinates": [
          139.72217917442,
          35.635983782448
        ]
      }
    },
    {
      "type": "Feature",
      "properties": {
        "id": "0d189126-0af5-4535-a825-98fbc4da67b3",
        "name": "敏感肌専門 美肌再生フェイシャル塾",
        "confidence": 0.08109799772500992,
        "address_freeform": "405 3 Chome-15-13 Kita-Aoyama",
        "address_locality": "港区",
        "address_postcode": "107-0061"
      },
      "geometry": {
        "type": "Point",
        "coordinates": [
          139.70905768,
          35.66420442
        ]
      }
    },
    {
      "type": "Feature",
      "properties": {
        "id": "0d24c034-e353-4720-884f-507a914429a2",
        "name": "日本燭台協会Radius",
        "confidence": 0.6407427787780762,
        "address_freeform": "三番町30-6",
        "address_locality": "千代田区",
        "address_postcode": "1020075"
      },
      "geometry": {
        "type": "Point",
        "coordinates": [
          139.74005126953,
          35.691181182861
        ]
      }
    },
    {
      "type": "Feature",
      "properties": {
        "id": "0d8a6465-8683-4592-b4d4-8bf7b19a84cb",
        "name": "イクウェルチャイルドアカデミー豊洲教室",
        "confidence": 0.363296777009964,
        "address_freeform": "東京都江東区豊洲４丁目６−５",
        "address_locality": "江東区",
        "address_postcode": "135-0061"
      },
      "geometry": {
        "type": "Point",
        "coordinates": [
          139.79727899,
          35.65472675
        ]
      }
    },
    {
      "type": "Feature",
      "properties": {
        "id": "0e2524ba-83bc-4772-9136-7097e2182148",
        "name": "Shoko New York",
        "confidence": 0.8639054298400879,
        "address_freeform": "東京都港区西麻布４丁目１５−２",
        "address_locality": "港区",
        "address_postcode": "106-0031"
      },
      "geometry": {
        "type": "Point",
        "coordinates": [
          139.72116065,
          35.65915581
        ]
      }
    },
    {
      "type": "Feature",
      "properties": {
        "id": "0e2f345f-0d81-413d-919d-9fa99822f687",
        "name": "First Steps Montessori English School",
        "confidence": 0.9260085821151733,
        "address_freeform": "3-7-1 Matsushiro",
        "address_locality": "千代田区",
        "address_postcode": "305-0035"
      },
      "geometry": {
        "type": "Point",
        "coordinates": [
          139.7704111,
          35.6934144
        ]
      }
    },
    {
      "type": "Feature",
      "properties": {
        "id": "0e406b5f-9c47-4add-8275-01ebad2ef704",
        "name": "Cebway English 英会話スクール",
        "confidence": 0.565066397190094,
        "address_freeform": "九段北1-4-5東英九段ビル3F",
        "address_locality": "千代田区",
        "address_postcode": "102-0073"
      },
      "geometry": {
        "type": "Point",
        "coordinates": [
          139.7512481,
          35.6965519
        ]
      }
    },
    {
      "type": "Feature",
      "properties": {
        "id": "0e765ae4-9386-4d92-8e94-ad3684ba7ed6",
        "name": "ホリスティックビューティ・アカデミー",
        "confidence": 0.45881348848342896,
        "address_freeform": "東京都港区南青山６丁目１３−１４",
        "address_locality": "港区",
        "address_postcode": "107-0062"
      },
      "geometry": {
        "type": "Point",
        "coordinates": [
          139.71488763,
          35.65928874
        ]
      }
    },
    {
      "type": "Feature",
      "properties": {
        "id": "0e8831dc-3dff-4e72-85ee-8bb2ea1d4054",
        "name": "神奈川県立鶴見養護学校",
        "confidence": 0.6952740550041199,
        "address_freeform": "神奈川県横浜市鶴見区駒岡４丁目４０−１",
        "address_locality": "横浜市鶴見区",
        "address_postcode": "230-0071"
      },
      "geometry": {
        "type": "Point",
        "coordinates": [
          139.65477537,
          35.53598661
        ]
      }
    },
    {
      "type": "Feature",
      "properties": {
        "id": "0ef419cb-3146-404e-a4be-11990fd33425",
        "name": "ネスインターナショナルスクール",
        "confidence": 0.8202648758888245,
        "address_freeform": "野沢２丁目３４−２サンワイズ野沢3F",
        "address_locality": "世田谷区",
        "address_postcode": "154-0003"
      },
      "geometry": {
        "type": "Point",
        "coordinates": [
          139.66528,
          35.6353492
        ]
      }
    },
    {
      "type": "Feature",
      "properties": {
        "id": "0f033cf6-c4fc-467f-8ada-c71a887c754e",
        "name": "学校法人日本女子大学",
        "confidence": 0.7384936213493347,
        "address_freeform": "東京都文京区目白台2-8-1",
        "address_locality": "豊島区",
        "address_postcode": null
      },
      "geometry": {
        "type": "Point",
        "coordinates": [
          139.7208394,
          35.7167186
        ]
      }
    },
    {
      "type": "Feature",
      "properties": {
        "id": "0f5a6fba-f725-48dc-b288-943fed757f37",
        "name": "ボーイスカウト杉並４団",
        "confidence": 0.5688798427581787,
        "address_freeform": "高井戸東4-18-13",
        "address_locality": "杉並区",
        "address_postcode": "168-0072"
      },
      "geometry": {
        "type": "Point",
        "coordinates": [
          139.62121546268,
          35.689522236152
        ]
      }
    },
    {
      "type": "Feature",
      "properties": {
        "id": "0f96b75c-2bae-44f1-afd4-41e09aed4d8e",
        "name": "三軒茶屋インターナショナルスクール",
        "confidence": 0.9800715446472168,
        "address_freeform": "上馬1－32－12　ISM三軒茶屋ビル２F",
        "address_locality": "世田谷区",
        "address_postcode": "1540011"
      },
      "geometry": {
        "type": "Point",
        "coordinates": [
          139.65240955353,
          35.6248403
        ]
      }
    },
    {
      "type": "Feature",
      "properties": {
        "id": "0fa1fd7d-d3a6-4488-8340-4b228679ae91",
        "name": "ブリスジャパンアカデミー〈グルーアートデコ＆下地デコシートスクール〉",
        "confidence": 0.5375876426696777,
        "address_freeform": "麻布十番3-7-11 シャトーデスボワール麻布301号",
        "address_locality": "港区",
        "address_postcode": "106-0045"
      },
      "geometry": {
        "type": "Point",
        "coordinates": [
          139.73451267422138,
          35.65361908015527
        ]
      }
    },
    {
      "type": "Feature",
      "properties": {
        "id": "0fa7ce74-eb46-418c-ae52-bc8ae8263834",
        "name": "東京都立田園調布特別支援学校",
        "confidence": 0.7102662324905396,
        "address_freeform": "東京都大田区田園調布５丁目４３−６",
        "address_locality": "大田区",
        "address_postcode": "145-0071"
      },
      "geometry": {
        "type": "Point",
        "coordinates": [
          139.65467501,
          35.59528836
        ]
      }
    },
    {
      "type": "Feature",
      "properties": {
        "id": "0fbf0578-1a16-4731-bc76-8d8bc270d48d",
        "name": "KEN IT OA WEB School",
        "confidence": 0.3144206404685974,
        "address_freeform": "千葉県松戸市本町１−１２",
        "address_locality": "松戸市",
        "address_postcode": "271-0091"
      },
      "geometry": {
        "type": "Point",
        "coordinates": [
          139.89986331,
          35.78408553
        ]
      }
    },
    {
      "type": "Feature",
      "properties": {
        "id": "0fd382fa-d5a4-4e3c-b08e-3665fd597042",
        "name": "早稲田大学理工キャンパス51号館",
        "confidence": 0.8837851881980896,
        "address_freeform": null,
        "address_locality": "新宿区",
        "address_postcode": null
      },
      "geometry": {
        "type": "Point",
        "coordinates": [
          139.70837893065465,
          35.706013751306216
        ]
      }
    },
    {
      "type": "Feature",
      "properties": {
        "id": "0fda5c8c-634c-469b-ab1c-c7df38d3411b",
        "name": "グローバル管楽器技術学院",
        "confidence": 0.904204785823822,
        "address_freeform": "大久保2-18-2",
        "address_locality": "新宿区",
        "address_postcode": "169-0072"
      },
      "geometry": {
        "type": "Point",
        "coordinates": [
          139.7058328,
          35.7016981
        ]
      }
    },
    {
      "type": "Feature",
      "properties": {
        "id": "0ffacfa5-4988-4eb6-b125-f934deb3bf35",
        "name": "GKコアズ",
        "confidence": 0.8300512433052063,
        "address_freeform": "東京都渋谷区広尾５丁目８−１２",
        "address_locality": "渋谷区",
        "address_postcode": "150-0012"
      },
      "geometry": {
        "type": "Point",
        "coordinates": [
          139.72172,
          35.6481344
        ]
      }
    },
    {
      "type": "Feature",
      "properties": {
        "id": "10bdc795-a50a-4c3a-a309-2101052f333e",
        "name": "絵画造形教室アトリエジムズ",
        "confidence": 0.9700563549995422,
        "address_freeform": "梅丘1-13-14 倉持マンション101",
        "address_locality": "世田谷区",
        "address_postcode": "1540022"
      },
      "geometry": {
        "type": "Point",
        "coordinates": [
          139.65440478966,
          35.655145580686
        ]
      }
    },
    {
      "type": "Feature",
      "properties": {
        "id": "10d16bb0-6e82-4b67-8dff-61ee69aeee21",
        "name": "楽習ルーム糀谷",
        "confidence": 0.6469590067863464,
        "address_freeform": "Nishikojiya, 3 Chome−16−2 やまのハイツ1F",
        "address_locality": "大田区",
        "address_postcode": "144-0034"
      },
      "geometry": {
        "type": "Point",
        "coordinates": [
          139.73530728,
          35.55481522
        ]
      }
    },
    {
      "type": "Feature",
      "properties": {
        "id": "11029c8c-0ff1-4216-8c11-0c5fba3acdc3",
        "name": "ファイト学習会",
        "confidence": 0.855427086353302,
        "address_freeform": "兵庫県神戸市長田区浪松町2-1-5",
        "address_locality": "千代田区",
        "address_postcode": "653-0055"
      },
      "geometry": {
        "type": "Point",
        "coordinates": [
          139.76345,
          35.6922894
        ]
      }
    },
    {
      "type": "Feature",
      "properties": {
        "id": "1111b733-0334-4154-b23e-4842d3262d5e",
        "name": "文京区立お茶の水女子大学こども園",
        "confidence": 0.7163382172584534,
        "address_freeform": null,
        "address_locality": "文京区",
        "address_postcode": null
      },
      "geometry": {
        "type": "Point",
        "coordinates": [
          139.732611,
          35.718833
        ]
      }
    },
    {
      "type": "Feature",
      "properties": {
        "id": "11726b32-46f4-490f-b3a1-2bcf0c5afa4c",
        "name": "MDI東京日本語学校",
        "confidence": 0.9685364961624146,
        "address_freeform": "4-2-4arakawa",
        "address_locality": "千代田区",
        "address_postcode": "1160002"
      },
      "geometry": {
        "type": "Point",
        "coordinates": [
          139.78078058743213,
          35.735969772602765
        ]
      }
    },
    {
      "type": "Feature",
      "properties": {
        "id": "11a3a530-fbc7-45aa-bc1b-40e75c499026",
        "name": "茶道華道着物和文化教室 わらいふ",
        "confidence": 0.7212424278259277,
        "address_freeform": "Asagayakita, 1 Chome−41−19 ビィラシラカバ 101",
        "address_locality": "杉並区",
        "address_postcode": "166-0001"
      },
      "geometry": {
        "type": "Point",
        "coordinates": [
          139.63718938,
          35.70948967
        ]
      }
    },
    {
      "type": "Feature",
      "properties": {
        "id": "11d29645-77e9-40dc-965f-72a573ed6bd7",
        "name": "幼児教室コペル",
        "confidence": 0.6367636919021606,
        "address_freeform": "新宿区新宿4-1-6 JR新宿ミライナタワー10階",
        "address_locality": "渋谷区",
        "address_postcode": "160-0022"
      },
      "geometry": {
        "type": "Point",
        "coordinates": [
          139.7113469,
          35.6668158
        ]
      }
    },
    {
      "type": "Feature",
      "properties": {
        "id": "11d3b2b2-5149-49a8-9a7c-8247244bcaa3",
        "name": "海城中高コンピューター部",
        "confidence": 0.78510981798172,
        "address_freeform": "大久保 3-6-1",
        "address_locality": "新宿区",
        "address_postcode": "1690072"
      },
      "geometry": {
        "type": "Point",
        "coordinates": [
          139.70224417968,
          35.705562644363
        ]
      }
    },
    {
      "type": "Feature",
      "properties": {
        "id": "1201be5d-201b-445a-bf2b-9befb097a1a7",
        "name": "椎名町ケーキクラブ",
        "confidence": 0.7223042845726013,
        "address_freeform": "南長崎2-1-2-1F",
        "address_locality": "新宿区",
        "address_postcode": "171-0052"
      },
      "geometry": {
        "type": "Point",
        "coordinates": [
          139.69382,
          35.71964
        ]
      }
    },
    {
      "type": "Feature",
      "properties": {
        "id": "121a4229-f9b7-4bf1-be73-06a031745513",
        "name": "スクールｉｅ 中野北口校",
        "confidence": 0.7232069969177246,
        "address_freeform": "新井2-1-19 パックマートビル2F",
        "address_locality": "中野区",
        "address_postcode": null
      },
      "geometry": {
        "type": "Point",
        "coordinates": [
          139.66703397,
          35.71430003
        ]
      }
    },
    {
      "type": "Feature",
      "properties": {
        "id": "12356428-48ed-4589-8e94-c0e7b786a56e",
        "name": "駿台予備学校市谷校舎",
        "confidence": 0.9946115410327911,
        "address_freeform": "東京都新宿区市谷八幡町１５",
        "address_locality": "新宿区",
        "address_postcode": null
      },
      "geometry": {
        "type": "Point",
        "coordinates": [
          139.73372265,
          35.69273269
        ]
      }
    },
    {
      "type": "Feature",
      "properties": {
        "id": "124f7e88-6a81-4819-87df-f06185c39731",
        "name": "CHhom（カレッジ・オブ・ホリスティック・ホメオパシー/シーエイチホム）",
        "confidence": 0.7403599619865417,
        "address_freeform": null,
        "address_locality": "世田谷区",
        "address_postcode": null
      },
      "geometry": {
        "type": "Point",
        "coordinates": [
          139.63082849979,
          35.621616784639
        ]
      }
    },
    {
      "type": "Feature",
      "properties": {
        "id": "128caf41-a54f-4389-a1e6-15afe74b78e1",
        "name": "English Garden",
        "confidence": 0.9113801121711731,
        "address_freeform": "53-13 Nakamachi Kodaira-shi",
        "address_locality": "板橋区",
        "address_postcode": "187-0042"
      },
      "geometry": {
        "type": "Point",
        "coordinates": [
          139.7040892,
          35.7497536
        ]
      }
    },
    {
      "type": "Feature",
      "properties": {
        "id": "12bdc3f5-98b6-499e-b58f-3dcc6b040a22",
        "name": "秀徳教育学院本館",
        "confidence": 0.8002256751060486,
        "address_freeform": "1 Chome-27-16 Tabatashinmachi",
        "address_locality": "北区",
        "address_postcode": "114-0012"
      },
      "geometry": {
        "type": "Point",
        "coordinates": [
          139.77003807,
          35.73824672
        ]
      }
    },
    {
      "type": "Feature",
      "properties": {
        "id": "12ebbb2b-5414-4066-a51e-be7eac3a63a2",
        "name": "MGA",
        "confidence": 0.7778026461601257,
        "address_freeform": "百人町1-13-1 ローズベイ新宿ビルB1",
        "address_locality": "新宿区",
        "address_postcode": "169-0073"
      },
      "geometry": {
        "type": "Point",
        "coordinates": [
          139.69920349121,
          35.698303222656
        ]
      }
    },
    {
      "type": "Feature",
      "properties": {
        "id": "12fd18f1-09af-4c53-b991-9627b5ce6d39",
        "name": "ライズサッカースクール千鳥町",
        "confidence": 0.7304202318191528,
        "address_freeform": "千鳥２－３－１５",
        "address_locality": "大田区",
        "address_postcode": "１４６－００８３"
      },
      "geometry": {
        "type": "Point",
        "coordinates": [
          139.69381207,
          35.57160804
        ]
      }
    },
    {
      "type": "Feature",
      "properties": {
        "id": "130dbbf0-dfd9-490b-8e03-3897d662c543",
        "name": "東京インターナショナルスクール　アフタースクール",
        "confidence": 0.9668036103248596,
        "address_freeform": "下目黒2-20-28　いちご目黒ビル6階",
        "address_locality": "世田谷区",
        "address_postcode": "153-0064"
      },
      "geometry": {
        "type": "Point",
        "coordinates": [
          139.70416201744,
          35.639608480975
        ]
      }
    },
    {
      "type": "Feature",
      "properties": {
        "id": "134ab374-6826-4b5e-91bb-dd1229c338db",
        "name": "矢島峰月書の教室",
        "confidence": 0.7271124720573425,
        "address_freeform": "東京都文京区白山１丁目２２−５",
        "address_locality": "文京区",
        "address_postcode": "113-0001"
      },
      "geometry": {
        "type": "Point",
        "coordinates": [
          139.75245558,
          35.7186023
        ]
      }
    },
    {
      "type": "Feature",
      "properties": {
        "id": "13551c6e-796b-4575-98b1-1ad96b0de4bb",
        "name": "渋谷ビジネス教室",
        "confidence": 0.9091386795043945,
        "address_freeform": "6 Chome-19-16 Jingumae",
        "address_locality": "渋谷区",
        "address_postcode": "150-0001"
      },
      "geometry": {
        "type": "Point",
        "coordinates": [
          139.70258852,
          35.66354288
        ]
      }
    },
    {
      "type": "Feature",
      "properties": {
        "id": "13841947-3b65-4b95-8cb6-cf1cf2afcef8",
        "name": "ネスト デジタル クリエイティブ アカデミー",
        "confidence": 0.8701750040054321,
        "address_freeform": "2丁目34−17住友不動産ビル13階",
        "address_locality": "渋谷区",
        "address_postcode": "1500001"
      },
      "geometry": {
        "type": "Point",
        "coordinates": [
          139.70775425434,
          35.674071073734
        ]
      }
    },
    {
      "type": "Feature",
      "properties": {
        "id": "13916d57-543d-4bdf-bf88-3ace232f2042",
        "name": "町子屋",
        "confidence": 0.9153937697410583,
        "address_freeform": "下目黒3-12-11",
        "address_locality": "品川区",
        "address_postcode": "153-0064"
      },
      "geometry": {
        "type": "Point",
        "coordinates": [
          139.7013729,
          35.606134950000005
        ]
      }
    },
    {
      "type": "Feature",
      "properties": {
        "id": "13d144e9-08f5-4a2f-8da0-51da6e0ade45",
        "name": "アイアンドビー　アカデミー（i&B Academy）",
        "confidence": 0.8746945858001709,
        "address_freeform": "浅草5-15-2",
        "address_locality": "台東区",
        "address_postcode": "111-0032"
      },
      "geometry": {
        "type": "Point",
        "coordinates": [
          139.79827883363077,
          35.717387648955736
        ]
      }
    },
    {
      "type": "Feature",
      "properties": {
        "id": "140ecd20-4cb2-4ad1-8b3f-9eed322de389",
        "name": "東京スクールオブミュージック&ダンス専門学校",
        "confidence": 0.9968578404188156,
        "address_freeform": "東京都江戸川区西葛西３丁目１４−８",
        "address_locality": "江戸川区",
        "address_postcode": "134-0088"
      },
      "geometry": {
        "type": "Point",
        "coordinates": [
          139.85705,
          35.665372
        ]
      }
    },
    {
      "type": "Feature",
      "properties": {
        "id": "141ebc62-9b68-4baa-b02c-a3f7bb42c249",
        "name": "Research Promotion Office, Chuo University, Japan",
        "confidence": 0.546445906162262,
        "address_freeform": "1-13-27",
        "address_locality": "文京区",
        "address_postcode": "112-8551"
      },
      "geometry": {
        "type": "Point",
        "coordinates": [
          139.74879741669,
          35.707666776533
        ]
      }
    },
    {
      "type": "Feature",
      "properties": {
        "id": "14943156-0688-4167-8eeb-fe3c1d3a2ada",
        "name": "思得学园",
        "confidence": 0.3824959099292755,
        "address_freeform": "1, 代々木2-1-1 新宿マインズタワー15階",
        "address_locality": "渋谷区",
        "address_postcode": "151-0053"
      },
      "geometry": {
        "type": "Point",
        "coordinates": [
          139.69827973,
          35.68698401
        ]
      }
    },
    {
      "type": "Feature",
      "properties": {
        "id": "14988c88-7140-4ea4-ae47-051a9347879f",
        "name": "Tokyography",
        "confidence": 0.044747453182935715,
        "address_freeform": "2004 3-29 Kioicho",
        "address_locality": "千代田区",
        "address_postcode": "102-0094"
      },
      "geometry": {
        "type": "Point",
        "coordinates": [
          139.73796973,
          35.68177562
        ]
      }
    },
    {
      "type": "Feature",
      "properties": {
        "id": "149b98da-a6c2-45b1-9f97-4150e00f3dec",
        "name": "東京都市大学 渋谷キャンパス",
        "confidence": 0.6348611116409302,
        "address_freeform": "東京都渋谷区桜丘町２５−１４",
        "address_locality": "渋谷区",
        "address_postcode": "150-0031"
      },
      "geometry": {
        "type": "Point",
        "coordinates": [
          139.70070445,
          35.65652774
        ]
      }
    },
    {
      "type": "Feature",
      "properties": {
        "id": "14dc3f7f-1415-4521-9379-9b8e0d3ddf2a",
        "name": "修明学園修明塾　浅草橋教室",
        "confidence": 0.9008265733718872,
        "address_freeform": "柳橋1-26-3",
        "address_locality": "台東区",
        "address_postcode": "111-0052"
      },
      "geometry": {
        "type": "Point",
        "coordinates": [
          139.78791319825,
          35.697288429253
        ]
      }
    },
    {
      "type": "Feature",
      "properties": {
        "id": "1566536a-c43b-4823-830e-9335236841ae",
        "name": "Itto個別指導学院　西所沢校",
        "confidence": 0.7348067164421082,
        "address_freeform": "西所沢1-26-1 煉瓦館・彩の森203",
        "address_locality": "練馬区",
        "address_postcode": "359-1144"
      },
      "geometry": {
        "type": "Point",
        "coordinates": [
          139.65756104,
          35.73984988
        ]
      }
    },
    {
      "type": "Feature",
      "properties": {
        "id": "158262e6-68fa-4365-a61c-0dd56d17a966",
        "name": "AN ビズジム",
        "confidence": 0.8542904853820801,
        "address_freeform": "松江路87號東京都心不動產股份有限公司",
        "address_locality": "台北市",
        "address_postcode": "104"
      },
      "geometry": {
        "type": "Point",
        "coordinates": [
          139.75172960778,
          35.695059699279
        ]
      }
    },
    {
      "type": "Feature",
      "properties": {
        "id": "15966b4b-7374-4108-aaa8-0536e08d2e71",
        "name": "草月流生け花教室",
        "confidence": 0.38545146584510803,
        "address_freeform": "東京都江東区東陽５丁目２６−１",
        "address_locality": "江東区",
        "address_postcode": "135-0016"
      },
      "geometry": {
        "type": "Point",
        "coordinates": [
          139.81420807,
          35.67084082
        ]
      }
    },
    {
      "type": "Feature",
      "properties": {
        "id": "15ecd0c4-5540-4aac-bf07-cf78a040b4cf",
        "name": "たまプラーザ・フリーバースダイビング・スクール",
        "confidence": 0.4835706353187561,
        "address_freeform": "青葉区美しが丘2丁目12-7-B3",
        "address_locality": "横浜市青葉区",
        "address_postcode": "225-0002"
      },
      "geometry": {
        "type": "Point",
        "coordinates": [
          139.56001657,
          35.58164365
        ]
      }
    },
    {
      "type": "Feature",
      "properties": {
        "id": "16709555-95bb-45fe-9f51-bd29f7734f57",
        "name": "World Kids Kindergarten",
        "confidence": 0.9363621473312378,
        "address_freeform": "Kizuki, 2 Chome−3−5 4F world kids office building",
        "address_locality": "川崎市中原区",
        "address_postcode": "211-0025"
      },
      "geometry": {
        "type": "Point",
        "coordinates": [
          139.65469772,
          35.56519375
        ]
      }
    },
    {
      "type": "Feature",
      "properties": {
        "id": "170782ed-d4a2-4177-a03e-4aa3f2f85512",
        "name": "メザミ バレエスタジオ / 江東区バレエスタジオ",
        "confidence": 0.9068503379821777,
        "address_freeform": "深川2-26-8 鈴木ビル1F",
        "address_locality": "江東区",
        "address_postcode": "135-0033"
      },
      "geometry": {
        "type": "Point",
        "coordinates": [
          139.7994119,
          35.6759894
        ]
      }
    },
    {
      "type": "Feature",
      "properties": {
        "id": "175a6363-46f0-4806-83ba-b3e793d1f526",
        "name": "学校法人 大竹学園 大竹高等専修学校",
        "confidence": 0.9507118463516235,
        "address_freeform": "台町 3-29-19",
        "address_locality": "新宿区",
        "address_postcode": "193-0931"
      },
      "geometry": {
        "type": "Point",
        "coordinates": [
          139.69665,
          35.7140181
        ]
      }
    },
    {
      "type": "Feature",
      "properties": {
        "id": "17956d0e-19dd-4d92-93b7-44219940c761",
        "name": "公文式喜沢教室",
        "confidence": 0.8259329795837402,
        "address_freeform": "喜沢1-3-14 ハイツ松山101",
        "address_locality": "川口市",
        "address_postcode": "335-0013"
      },
      "geometry": {
        "type": "Point",
        "coordinates": [
          139.6934604050109,
          35.81197564003113
        ]
      }
    },
    {
      "type": "Feature",
      "properties": {
        "id": "18186864-9988-496b-869a-ea9ba6e88936",
        "name": "ドラマスクール・レッドホースヒルズ",
        "confidence": 0.8109821677207947,
        "address_freeform": "富ヶ谷１－５－５",
        "address_locality": "渋谷区",
        "address_postcode": "155-0063"
      },
      "geometry": {
        "type": "Point",
        "coordinates": [
          139.69009757569063,
          35.66928412084733
        ]
      }
    },
    {
      "type": "Feature",
      "properties": {
        "id": "184a4583-452f-4bc9-bb0b-eae93a2e6d17",
        "name": "Growボーカル・ピアノスクール",
        "confidence": 0.7783017754554749,
        "address_freeform": "東京都",
        "address_locality": "港区",
        "address_postcode": "1070052"
      },
      "geometry": {
        "type": "Point",
        "coordinates": [
          139.73408378583,
          35.674982918147
        ]
      }
    },
    {
      "type": "Feature",
      "properties": {
        "id": "1852555f-41d2-4afb-ab60-b0fb8ed0bbb1",
        "name": "代々木アクターズクリニックスタジオ",
        "confidence": 0.9660329818725586,
        "address_freeform": "Yoyogi, 1 Chome−31−15",
        "address_locality": "渋谷区",
        "address_postcode": "151-0053"
      },
      "geometry": {
        "type": "Point",
        "coordinates": [
          139.70218352,
          35.68176023
        ]
      }
    },
    {
      "type": "Feature",
      "properties": {
        "id": "185a8087-61d4-4ae8-a33f-1260e37abcf6",
        "name": "オリエンタルアカデミー",
        "confidence": 0.7794114947319031,
        "address_freeform": "3-5 Maruyamacho",
        "address_locality": "渋谷区",
        "address_postcode": "150-0044"
      },
      "geometry": {
        "type": "Point",
        "coordinates": [
          139.69599562,
          35.65753451
        ]
      }
    },
    {
      "type": "Feature",
      "properties": {
        "id": "1875ca26-aca2-4b63-b50a-9e547777553f",
        "name": "新潟県立新潟西高等学校",
        "confidence": 0.7317962050437927,
        "address_freeform": "西区内野西が丘3-24-1",
        "address_locality": "千代田区",
        "address_postcode": "950-2157"
      },
      "geometry": {
        "type": "Point",
        "coordinates": [
          139.7624747,
          35.6958078
        ]
      }
    },
    {
      "type": "Feature",
      "properties": {
        "id": "18b91ea6-11bd-4482-8901-67d55e26c552",
        "name": "ココキャリ・アカデミー",
        "confidence": 0.24431084096431732,
        "address_freeform": "Shibuya, 3 Chome−6−6 渋谷パークビル 7階",
        "address_locality": "渋谷区",
        "address_postcode": "150-0002"
      },
      "geometry": {
        "type": "Point",
        "coordinates": [
          139.70559747,
          35.65799635
        ]
      }
    },
    {
      "type": "Feature",
      "properties": {
        "id": "18ba100c-f73a-422c-99b3-66cfcb611c25",
        "name": "ストレッチ専門店 ストレチックス 王子神谷店",
        "confidence": 0.5773067474365234,
        "address_freeform": "東京都北区東十条４丁目８−１５",
        "address_locality": "北区",
        "address_postcode": "114-0001"
      },
      "geometry": {
        "type": "Point",
        "coordinates": [
          139.72945684,
          35.76679565
        ]
      }
    },
    {
      "type": "Feature",
      "properties": {
        "id": "18db8a45-6c62-4fcb-9f71-93e09b7b6883",
        "name": "Jcli日本語教師養成講座",
        "confidence": 0.6344947218894958,
        "address_freeform": "豊島8-4-1",
        "address_locality": "北区",
        "address_postcode": "114-0003"
      },
      "geometry": {
        "type": "Point",
        "coordinates": [
          139.74027320341386,
          35.76420262136668
        ]
      }
    },
    {
      "type": "Feature",
      "properties": {
        "id": "18e4cb3a-14f0-4a61-acc4-069535f08040",
        "name": "TCA Tokyo ECO Dobutsu Kaiyou Senmon Gakkou",
        "confidence": 0.9881906509399414,
        "address_freeform": "6 Chome-29-9 Nishikasai",
        "address_locality": "江戸川区",
        "address_postcode": "134-0088"
      },
      "geometry": {
        "type": "Point",
        "coordinates": [
          139.86391959,
          35.66347071
        ]
      }
    },
    {
      "type": "Feature",
      "properties": {
        "id": "1929eff4-c60e-43ad-83ca-ae1343e9e631",
        "name": "明治大学駿河台校舎14号館プレハブ棟演劇スタジオB",
        "confidence": 0.8935059309005737,
        "address_freeform": "1 Chome-6 Sarugakucho",
        "address_locality": "千代田区",
        "address_postcode": "101-0064"
      },
      "geometry": {
        "type": "Point",
        "coordinates": [
          139.76086623,
          35.69855067
        ]
      }
    },
    {
      "type": "Feature",
      "properties": {
        "id": "19658ae4-23bc-4a54-9779-30dbda57519d",
        "name": "個別指導学習塾 クリップアカデミー",
        "confidence": 0.5751054883003235,
        "address_freeform": "小松川3-4-1",
        "address_locality": "江戸川区",
        "address_postcode": "132-0034"
      },
      "geometry": {
        "type": "Point",
        "coordinates": [
          139.883,
          35.7
        ]
      }
    },
    {
      "type": "Feature",
      "properties": {
        "id": "198f5ba0-a509-4cf3-be30-4867ea1236ac",
        "name": "練馬区光が丘第一中学校",
        "confidence": 0.7146926522254944,
        "address_freeform": "光が丘7丁目1-1",
        "address_locality": "練馬区",
        "address_postcode": "179-0072　"
      },
      "geometry": {
        "type": "Point",
        "coordinates": [
          139.622626,
          35.760129
        ]
      }
    },
    {
      "type": "Feature",
      "properties": {
        "id": "19a5fa9a-f992-4f1f-a834-357b68f88405",
        "name": "Hiraku Kids大井町校",
        "confidence": 0.981704905629158,
        "address_freeform": "東京都品川区大井１丁目２３−４",
        "address_locality": "品川区",
        "address_postcode": "140-0014"
      },
      "geometry": {
        "type": "Point",
        "coordinates": [
          139.73288714886,
          35.606251433641
        ]
      }
    },
    {
      "type": "Feature",
      "properties": {
        "id": "19a67c80-784e-48f6-8e25-4f8433827429",
        "name": "個別指導学院ヒーローズ八広校",
        "confidence": 0.9028235673904419,
        "address_freeform": "Yahiro, 6 Chome−10−9 オクスレジデンス 1F",
        "address_locality": "墨田区",
        "address_postcode": "131-0041"
      },
      "geometry": {
        "type": "Point",
        "coordinates": [
          139.82663588,
          35.72805988
        ]
      }
    },
    {
      "type": "Feature",
      "properties": {
        "id": "19e7d844-b039-4811-8802-1f396facbf58",
        "name": "コーディネーションアカデミージャパン",
        "confidence": 0.9606989622116089,
        "address_freeform": "Kioicho, 4−1 ホテルニューオータニ タワ ７Ｆ 2714号",
        "address_locality": "千代田区",
        "address_postcode": "102-0094"
      },
      "geometry": {
        "type": "Point",
        "coordinates": [
          139.7350177,
          35.67981564
        ]
      }
    },
    {
      "type": "Feature",
      "properties": {
        "id": "19f8c8cc-d9b2-450d-bd1b-e5fca1362170",
        "name": "フジオカ国語教室",
        "confidence": 0.6844500303268433,
        "address_freeform": null,
        "address_locality": "川崎市中原区",
        "address_postcode": null
      },
      "geometry": {
        "type": "Point",
        "coordinates": [
          139.6527469,
          35.5651622
        ]
      }
    },
    {
      "type": "Feature",
      "properties": {
        "id": "1a1c0c19-6268-4017-bc05-d8b53ef4205d",
        "name": "百",
        "confidence": 0.4914760887622833,
        "address_freeform": "東京都渋谷区神宮前２丁目１９−１３",
        "address_locality": "渋谷区",
        "address_postcode": "150-0001"
      },
      "geometry": {
        "type": "Point",
        "coordinates": [
          139.71036154,
          35.67348095
        ]
      }
    },
    {
      "type": "Feature",
      "properties": {
        "id": "1a281282-40b8-4c3e-8cdf-07875f765144",
        "name": "明和学園",
        "confidence": 0.6465132832527161,
        "address_freeform": "松が谷2-1-2",
        "address_locality": "台東区",
        "address_postcode": "111-0036"
      },
      "geometry": {
        "type": "Point",
        "coordinates": [
          139.787962,
          35.712503
        ]
      }
    },
    {
      "type": "Feature",
      "properties": {
        "id": "1a74d157-8c38-4155-bd46-554ec93b64ab",
        "name": "Cha no Yu おもてなしテーブル茶道",
        "confidence": 0.8866091370582581,
        "address_freeform": "Otsuka, 5 Chome−22−2 3F",
        "address_locality": "文京区",
        "address_postcode": "112-0012"
      },
      "geometry": {
        "type": "Point",
        "coordinates": [
          139.7297783,
          35.72287162
        ]
      }
    },
    {
      "type": "Feature",
      "properties": {
        "id": "1a80714c-b4e7-42ab-b788-ec55d14973b9",
        "name": "Hālau Nā Mamo O Tulipa",
        "confidence": 0.9101580381393433,
        "address_freeform": "代々木2-36-4 プリンスマンション101",
        "address_locality": "杉並区",
        "address_postcode": "1530051"
      },
      "geometry": {
        "type": "Point",
        "coordinates": [
          139.69676786101215,
          35.68456364265601
        ]
      }
    },
    {
      "type": "Feature",
      "properties": {
        "id": "1a96d076-1128-41b2-86f0-380a4175d33a",
        "name": "シューレ学習会",
        "confidence": 0.5501288175582886,
        "address_freeform": "東京都武蔵野市西久保２丁目３−１５",
        "address_locality": "武蔵野市",
        "address_postcode": "180-0013"
      },
      "geometry": {
        "type": "Point",
        "coordinates": [
          139.56180129,
          35.70905076
        ]
      }
    },
    {
      "type": "Feature",
      "properties": {
        "id": "1ac05a57-64dc-42b7-988f-92d23d244b58",
        "name": "The Montessori School of Tokyo",
        "confidence": 0.997105768918991,
        "address_freeform": "東京都港区南麻布３丁目５−１３",
        "address_locality": "港区",
        "address_postcode": "106-0047"
      },
      "geometry": {
        "type": "Point",
        "coordinates": [
          139.730043,
          35.65134465
        ]
      }
    },
    {
      "type": "Feature",
      "properties": {
        "id": "1b14a92c-a4a3-41f1-aa40-508e201cc62f",
        "name": "典雅きもの学院 はすぬま校 【着物着付け】",
        "confidence": 0.8608835935592651,
        "address_freeform": "東京都大田区東矢口１丁目１５−１９",
        "address_locality": "大田区",
        "address_postcode": "146-0094"
      },
      "geometry": {
        "type": "Point",
        "coordinates": [
          139.70374013,
          35.56411567
        ]
      }
    },
    {
      "type": "Feature",
      "properties": {
        "id": "1b447be6-936a-4aaf-8eec-b482af5b7ed5",
        "name": "デコアートスクール",
        "confidence": 0.7787203788757324,
        "address_freeform": "2 Chome-12 Shinjuku",
        "address_locality": "新宿区",
        "address_postcode": "160-0022"
      },
      "geometry": {
        "type": "Point",
        "coordinates": [
          139.70807082,
          35.69041131
        ]
      }
    },
    {
      "type": "Feature",
      "properties": {
        "id": "1b6c3d29-b9fa-4fa6-a3fe-7fbc55414877",
        "name": "恵比寿研修会館",
        "confidence": 0.753667950630188,
        "address_freeform": "東京都渋谷区恵比寿西１丁目３２−２５",
        "address_locality": "渋谷区",
        "address_postcode": "150-0021"
      },
      "geometry": {
        "type": "Point",
        "coordinates": [
          139.70466415,
          35.64713758
        ]
      }
    },
    {
      "type": "Feature",
      "properties": {
        "id": "1b85a8e3-b417-4c25-ab93-fd2c45911654",
        "name": "TSBS卒業生",
        "confidence": 0.6862725615501404,
        "address_freeform": "南池袋2-8-7",
        "address_locality": "豊島区",
        "address_postcode": "171-0022"
      },
      "geometry": {
        "type": "Point",
        "coordinates": [
          139.71506968781,
          35.725368387162
        ]
      }
    },
    {
      "type": "Feature",
      "properties": {
        "id": "1c160e48-f98b-479c-b575-79fae5fed2eb",
        "name": "飲食塾",
        "confidence": 0.9431903958320618,
        "address_freeform": "Nishishinjuku, 1 Chome−25−1 Shinjuku Center Building, MB1",
        "address_locality": "新宿区",
        "address_postcode": "160-0023"
      },
      "geometry": {
        "type": "Point",
        "coordinates": [
          139.69542143,
          35.69194577
        ]
      }
    },
    {
      "type": "Feature",
      "properties": {
        "id": "1c171842-dbc6-41eb-b1a3-34c5099defee",
        "name": "パソコン教室わかるとできるイトーヨーカドー上板橋校",
        "confidence": 0.5730319023132324,
        "address_freeform": "徳丸2-6-1",
        "address_locality": "板橋区",
        "address_postcode": "174-0071"
      },
      "geometry": {
        "type": "Point",
        "coordinates": [
          139.6524731,
          35.7747908
        ]
      }
    },
    {
      "type": "Feature",
      "properties": {
        "id": "1c1a2913-805f-4461-91d3-d9337f01851f",
        "name": "Kumon Maths & English",
        "confidence": 0.028140511363744736,
        "address_freeform": "Kanda Jinbocho, 2 Chome−１４−1306",
        "address_locality": "千代田区",
        "address_postcode": "101-0051"
      },
      "geometry": {
        "type": "Point",
        "coordinates": [
          139.75725075,
          35.69703035
        ]
      }
    },
    {
      "type": "Feature",
      "properties": {
        "id": "1c8a0e45-ad80-420e-b220-e611b2035751",
        "name": "愛育学園",
        "confidence": 0.6559993028640747,
        "address_freeform": "東京都港区南麻布５丁目６−８",
        "address_locality": "港区",
        "address_postcode": "106-8580"
      },
      "geometry": {
        "type": "Point",
        "coordinates": [
          139.72664557,
          35.65357834
        ]
      }
    },
    {
      "type": "Feature",
      "properties": {
        "id": "1cb827b9-dcb7-46c3-a1d2-056467f0ecce",
        "name": "株式会社グリーンウォーターズ",
        "confidence": 0.5324756503105164,
        "address_freeform": "Bancho Kojimachi Building 6F, 6-6-2 Kojimachi, Chiyoda-ku, Tokyo 102-0083, Japan",
        "address_locality": "新宿区",
        "address_postcode": "102-0083"
      },
      "geometry": {
        "type": "Point",
        "coordinates": [
          139.73387180362,
          35.684146422921
        ]
      }
    },
    {
      "type": "Feature",
      "properties": {
        "id": "1cbe6388-edd3-401f-ab9d-498d59dd63e3",
        "name": "The Nuad Bo Rarn School Japan",
        "confidence": 0.733801543712616,
        "address_freeform": "恵比寿西2-20-8",
        "address_locality": "渋谷区",
        "address_postcode": "150-0021"
      },
      "geometry": {
        "type": "Point",
        "coordinates": [
          139.70458388329,
          35.648133761599
        ]
      }
    },
    {
      "type": "Feature",
      "properties": {
        "id": "1cd7b708-cde8-4eaf-b177-6548038ba7a4",
        "name": "本郷アカデミー",
        "confidence": 0.6205464601516724,
        "address_freeform": "東京都文京区本郷１丁目２０−９",
        "address_locality": "文京区",
        "address_postcode": "113-0033"
      },
      "geometry": {
        "type": "Point",
        "coordinates": [
          139.75532087,
          35.70451808
        ]
      }
    },
    {
      "type": "Feature",
      "properties": {
        "id": "1cda4bec-9ec3-423a-b2f1-88f82c398e0f",
        "name": "エコール ルヴァン ダンダン",
        "confidence": 0.38703328371047974,
        "address_freeform": "3 Chome-1-6 Azabudai",
        "address_locality": "港区",
        "address_postcode": "106-0041"
      },
      "geometry": {
        "type": "Point",
        "coordinates": [
          139.73854801,
          35.66088234
        ]
      }
    },
    {
      "type": "Feature",
      "properties": {
        "id": "1cedf730-04ae-41c8-8dc7-eefb43286880",
        "name": "進学塾ペリパトス",
        "confidence": 0.6382567882537842,
        "address_freeform": "Akabane, 2 Chome−17−7 プライム赤羽 ３F",
        "address_locality": "北区",
        "address_postcode": "115-0045"
      },
      "geometry": {
        "type": "Point",
        "coordinates": [
          139.7228246,
          35.78043881
        ]
      }
    },
    {
      "type": "Feature",
      "properties": {
        "id": "1d030a1b-3fa5-4b44-82b4-27ec076f9231",
        "name": "カワナミゴルフスクール杉並",
        "confidence": 0.7394160628318787,
        "address_freeform": "東京都杉並区松ノ木１丁目１２−５４",
        "address_locality": "杉並区",
        "address_postcode": "166-0014"
      },
      "geometry": {
        "type": "Point",
        "coordinates": [
          139.6434915,
          35.68858364
        ]
      }
    },
    {
      "type": "Feature",
      "properties": {
        "id": "1d1da61f-4fcb-449f-9c04-00eb3a670983",
        "name": "東京国際アロマセラピスト学院",
        "confidence": 0.3857135474681854,
        "address_freeform": "東京都港区西新橋１丁目１７−５",
        "address_locality": "港区",
        "address_postcode": "105-0003"
      },
      "geometry": {
        "type": "Point",
        "coordinates": [
          139.75389937,
          35.6676434
        ]
      }
    },
    {
      "type": "Feature",
      "properties": {
        "id": "1d58751d-e39e-4488-80b4-2d5c8d4e6ae7",
        "name": "青山なでしこ学院",
        "confidence": 0.814494252204895,
        "address_freeform": "南青山4−25−10",
        "address_locality": "港区",
        "address_postcode": "1070062"
      },
      "geometry": {
        "type": "Point",
        "coordinates": [
          139.71825242043,
          35.663136675664
        ]
      }
    },
    {
      "type": "Feature",
      "properties": {
        "id": "1d6a04be-fd65-45fd-9a19-ec0a7d70180a",
        "name": "河合塾秋葉原館",
        "confidence": 0.9555348753929138,
        "address_freeform": "東京都千代田区岩本町３丁目１１−１１",
        "address_locality": "千代田区",
        "address_postcode": "101-0032"
      },
      "geometry": {
        "type": "Point",
        "coordinates": [
          139.7766469,
          35.69662801
        ]
      }
    },
    {
      "type": "Feature",
      "properties": {
        "id": "1d8176d1-f068-4237-bf88-2d79f7a68ca6",
        "name": "キンダリーインターナショナル",
        "confidence": 0.968650221824646,
        "address_freeform": "勝どき3丁目3-19",
        "address_locality": "中央区",
        "address_postcode": "104-0054"
      },
      "geometry": {
        "type": "Point",
        "coordinates": [
          139.77501624733,
          35.659648214846
        ]
      }
    },
    {
      "type": "Feature",
      "properties": {
        "id": "1db17c8b-6875-4863-9046-319f33f37d08",
        "name": "Jslas 日本・スリランカ アーユルヴェーダスクール 横浜本校",
        "confidence": 0.7938732504844666,
        "address_freeform": "2 Chome-22-34 Takatanishi",
        "address_locality": "横浜市港北区",
        "address_postcode": "223-0066"
      },
      "geometry": {
        "type": "Point",
        "coordinates": [
          139.61549252,
          35.55223787
        ]
      }
    },
    {
      "type": "Feature",
      "properties": {
        "id": "1e266073-ee64-4657-a10f-a99b166e16f0",
        "name": "にしおぎ学院",
        "confidence": 0.7893712520599365,
        "address_freeform": "西荻北３丁目３１‐７　石田ビル２階",
        "address_locality": "杉並区",
        "address_postcode": "167-0042"
      },
      "geometry": {
        "type": "Point",
        "coordinates": [
          139.6037,
          35.70265
        ]
      }
    },
    {
      "type": "Feature",
      "properties": {
        "id": "1e643efe-0256-47d4-959b-ab120dcdd58a",
        "name": "己書おはぎ名人道場",
        "confidence": 0.8991066217422485,
        "address_freeform": "Nishikawaguchi, 4 Chome−14−20 かふぇいそぎん内 メゾン矢澤 101号",
        "address_locality": "川口市",
        "address_postcode": "332-0021"
      },
      "geometry": {
        "type": "Point",
        "coordinates": [
          139.7086492,
          35.80901009
        ]
      }
    },
    {
      "type": "Feature",
      "properties": {
        "id": "1e93bb86-6429-4592-be6e-1b7f713d8ab6",
        "name": "ボーダレスアカデミー",
        "confidence": 0.22805817425251007,
        "address_freeform": null,
        "address_locality": "新宿区",
        "address_postcode": null
      },
      "geometry": {
        "type": "Point",
        "coordinates": [
          139.7381267,
          35.6954517
        ]
      }
    },
    {
      "type": "Feature",
      "properties": {
        "id": "1eea5824-e6d4-48ea-9f8c-eb261e450906",
        "name": "熱血指導塾わせスタ",
        "confidence": 0.6273535490036011,
        "address_freeform": "西新井本町5-13-7-1F",
        "address_locality": "足立区",
        "address_postcode": "1230845"
      },
      "geometry": {
        "type": "Point",
        "coordinates": [
          139.7813678,
          35.7719333
        ]
      }
    },
    {
      "type": "Feature",
      "properties": {
        "id": "1f064b28-f954-4a38-a222-53093e3d823e",
        "name": "英才個別学院 馬込校",
        "confidence": 0.7704711556434631,
        "address_freeform": "南馬込5-1-9",
        "address_locality": "大田区",
        "address_postcode": "143-0025"
      },
      "geometry": {
        "type": "Point",
        "coordinates": [
          139.717,
          35.5667
        ]
      }
    },
    {
      "type": "Feature",
      "properties": {
        "id": "1f1928c4-3593-4f4e-91ee-35c026de455a",
        "name": "明治大学就職キャリア支援センター（和泉）",
        "confidence": 0.7682305574417114,
        "address_freeform": "永福1-9-1",
        "address_locality": "世田谷区",
        "address_postcode": "168-8555"
      },
      "geometry": {
        "type": "Point",
        "coordinates": [
          139.6482106,
          35.6708578
        ]
      }
    },
    {
      "type": "Feature",
      "properties": {
        "id": "1f1ebc50-eeba-433b-ab66-59c392ed03f9",
        "name": "ドルトンスクール東京",
        "confidence": 0.9848108184337616,
        "address_freeform": "東京都渋谷区上原３丁目２８−１８",
        "address_locality": "渋谷区",
        "address_postcode": "151-0064"
      },
      "geometry": {
        "type": "Point",
        "coordinates": [
          139.67485804,
          35.66462991
        ]
      }
    },
    {
      "type": "Feature",
      "properties": {
        "id": "1f37997d-4b87-4b6f-a489-887dfab5e974",
        "name": "東京メディカル学院",
        "confidence": 0.9116367197036743,
        "address_freeform": "東京都中野区中野２丁目１１−６",
        "address_locality": "中野区",
        "address_postcode": "164-0001"
      },
      "geometry": {
        "type": "Point",
        "coordinates": [
          139.66822024,
          35.70542225
        ]
      }
    },
    {
      "type": "Feature",
      "properties": {
        "id": "1f72a653-94c8-4f0c-a9e7-3ffac4aa7a13",
        "name": "TIEC Ikebukuro - 東京国際交流学院池袋校",
        "confidence": 0.9851834774017334,
        "address_freeform": "南大塚3-19-7",
        "address_locality": "豊島区",
        "address_postcode": "170-0005"
      },
      "geometry": {
        "type": "Point",
        "coordinates": [
          139.7266378,
          35.7295228
        ]
      }
    },
    {
      "type": "Feature",
      "properties": {
        "id": "1f787622-baeb-41df-b108-344280bc0707",
        "name": "After school KILIG",
        "confidence": 0.7144254446029663,
        "address_freeform": "東京都世田谷区給田１丁目６−１３",
        "address_locality": "世田谷区",
        "address_postcode": "157-0064"
      },
      "geometry": {
        "type": "Point",
        "coordinates": [
          139.59067562,
          35.662809
        ]
      }
    },
    {
      "type": "Feature",
      "properties": {
        "id": "1f83d6a6-c108-44f6-af39-247c9ad2258c",
        "name": "R.project school",
        "confidence": 0.5924245119094849,
        "address_freeform": "東京都中央区日本橋馬喰町１丁目１０−１２",
        "address_locality": "中央区",
        "address_postcode": "103-0002"
      },
      "geometry": {
        "type": "Point",
        "coordinates": [
          139.7828436,
          35.6940481
        ]
      }
    },
    {
      "type": "Feature",
      "properties": {
        "id": "1f93caef-3a46-4a45-bbd2-18696434acaa",
        "name": "マリンライセンスロイヤル東京",
        "confidence": 0.9864598959684372,
        "address_freeform": "東京都中央区勝どき３丁目１５−３",
        "address_locality": "中央区",
        "address_postcode": "104-0054"
      },
      "geometry": {
        "type": "Point",
        "coordinates": [
          139.77298817688,
          35.658591670292
        ]
      }
    },
    {
      "type": "Feature",
      "properties": {
        "id": "1f9e6c2f-7a7e-4702-b13e-24ebd59ec28e",
        "name": "映画24区トレーニング",
        "confidence": 0.4989964962005615,
        "address_freeform": "Ginza, 3 Chome−10−9 2F",
        "address_locality": "中央区",
        "address_postcode": "104-0061"
      },
      "geometry": {
        "type": "Point",
        "coordinates": [
          139.76783465,
          35.67088779
        ]
      }
    },
    {
      "type": "Feature",
      "properties": {
        "id": "1fae3ec6-610c-4e22-8351-0f8121b9063d",
        "name": "品川区立立会小学校",
        "confidence": 0.77,
        "address_freeform": "東大井4-15-9",
        "address_locality": "品川区",
        "address_postcode": "140-0011"
      },
      "geometry": {
        "type": "Point",
        "coordinates": [
          139.73995512786985,
          35.60446571296529
        ]
      }
    },
    {
      "type": "Feature",
      "properties": {
        "id": "1fc1f450-6700-4c60-8230-180f43fa89ea",
        "name": "LACOMS",
        "confidence": 0.49148881435394287,
        "address_freeform": "東京都渋谷区代々木１丁目４１−９",
        "address_locality": "渋谷区",
        "address_postcode": "151-0053"
      },
      "geometry": {
        "type": "Point",
        "coordinates": [
          139.69990106,
          35.68238468
        ]
      }
    },
    {
      "type": "Feature",
      "properties": {
        "id": "204fd001-1021-491b-b81e-9bce7935b00a",
        "name": "京進の日本語学校 KLA DBC校/Kyoshin Language Academy DBC",
        "confidence": 0.9371117949485779,
        "address_freeform": "西日暮里2丁目51-8 ",
        "address_locality": "荒川区",
        "address_postcode": "116-0013"
      },
      "geometry": {
        "type": "Point",
        "coordinates": [
          139.770527,
          35.730592
        ]
      }
    },
    {
      "type": "Feature",
      "properties": {
        "id": "20906612-c5ab-4f41-ae8b-cae9ca9969a2",
        "name": "東進こども英語塾　戸越一丁目教室 （幼児、児童英語）",
        "confidence": 0.97206711769104,
        "address_freeform": "戸越1丁目",
        "address_locality": "品川区",
        "address_postcode": "142-0041"
      },
      "geometry": {
        "type": "Point",
        "coordinates": [
          139.71917724609,
          35.616191864014
        ]
      }
    },
    {
      "type": "Feature",
      "properties": {
        "id": "20a7150c-2909-4d5f-82ef-8a4c42561591",
        "name": "フェリスネイルスクール東京校",
        "confidence": 0.8175767660140991,
        "address_freeform": "Nishishinjuku, 7 Chome−4−4 武蔵ビル 4F",
        "address_locality": "新宿区",
        "address_postcode": "160-0023"
      },
      "geometry": {
        "type": "Point",
        "coordinates": [
          139.69841967,
          35.69589609
        ]
      }
    },
    {
      "type": "Feature",
      "properties": {
        "id": "20ab520f-2e24-4a20-8019-0bd89c9a3349",
        "name": "東京青山Nlp・認知行動療法専門スクール",
        "confidence": 0.3002859055995941,
        "address_freeform": "Minamiaoyama, 2 Chome−2−15 ウィン青山 1323",
        "address_locality": "港区",
        "address_postcode": "154-0023"
      },
      "geometry": {
        "type": "Point",
        "coordinates": [
          139.72381888,
          35.67150298
        ]
      }
    },
    {
      "type": "Feature",
      "properties": {
        "id": "20b053f0-6cfd-4f43-a425-37fc04517db5",
        "name": "ステンドグラス教室ラ・ファミーユ",
        "confidence": 0.5841361284255981,
        "address_freeform": "2 Chome-15-2 Nishiikebukuro",
        "address_locality": "豊島区",
        "address_postcode": "171-0021"
      },
      "geometry": {
        "type": "Point",
        "coordinates": [
          139.7050658,
          35.72559003
        ]
      }
    },
    {
      "type": "Feature",
      "properties": {
        "id": "20b2cd86-d1a8-44df-9657-c86e7954c7c1",
        "name": "Numeber Sports Business College",
        "confidence": 0.5541785359382629,
        "address_freeform": "紀尾井町3-23",
        "address_locality": "千代田区",
        "address_postcode": "102-0094"
      },
      "geometry": {
        "type": "Point",
        "coordinates": [
          139.73772525787,
          35.682014896152
        ]
      }
    },
    {
      "type": "Feature",
      "properties": {
        "id": "210d2077-82cd-4ad6-8fdc-58c9fde63887",
        "name": "Kiumu語学院 · Kiumu Academy",
        "confidence": 0.9639360308647156,
        "address_freeform": "東京都新宿区大久保1-16-14 山水林ビル402号-14 山水林ビル402号 ",
        "address_locality": "新宿区",
        "address_postcode": "1690072"
      },
      "geometry": {
        "type": "Point",
        "coordinates": [
          139.7020966343,
          35.701156692204
        ]
      }
    },
    {
      "type": "Feature",
      "properties": {
        "id": "212ae89f-5706-4b8a-afb9-27000488d04f",
        "name": "町田ひろ子アカデミー東京校",
        "confidence": 0.9795308113098145,
        "address_freeform": "Kita-Aoyama, 2 Chome−12−5 ＫＲＴ青山 3階",
        "address_locality": "港区",
        "address_postcode": "107-0061"
      },
      "geometry": {
        "type": "Point",
        "coordinates": [
          139.71589195,
          35.67120223
        ]
      }
    },
    {
      "type": "Feature",
      "properties": {
        "id": "2148fdaf-9130-46fa-b1f5-ecb93dcd637c",
        "name": "British School in Tokyo",
        "confidence": 0.9793734550476074,
        "address_freeform": "東京都渋谷区渋谷１丁目２１−１８",
        "address_locality": "渋谷区",
        "address_postcode": "150-0002"
      },
      "geometry": {
        "type": "Point",
        "coordinates": [
          139.70345443,
          35.66386289
        ]
      }
    },
    {
      "type": "Feature",
      "properties": {
        "id": "21969995-df3a-41fa-a2d0-25019120c0dd",
        "name": "豊島区率池袋第一小学校仮校舎",
        "confidence": 0.7956823110580444,
        "address_freeform": "4 Chome-36 Ikebukurohoncho",
        "address_locality": "板橋区",
        "address_postcode": "170-0011"
      },
      "geometry": {
        "type": "Point",
        "coordinates": [
          139.71457314,
          35.74430957
        ]
      }
    },
    {
      "type": "Feature",
      "properties": {
        "id": "219c5ac0-e3a9-4aa2-b848-59ffd5a430b3",
        "name": "World Aros International School",
        "confidence": 0.4653899371623993,
        "address_freeform": "3 Chome-7-1 Nishishinjuku",
        "address_locality": "新宿区",
        "address_postcode": "163-1030"
      },
      "geometry": {
        "type": "Point",
        "coordinates": [
          139.6908388,
          35.68542546
        ]
      }
    },
    {
      "type": "Feature",
      "properties": {
        "id": "219ec327-0a07-49e8-8575-b1a2dc0dd22e",
        "name": "学校法人　白萩学園　ファッションビジネス カレッジ 東京",
        "confidence": 0.88755863904953,
        "address_freeform": "東京都新宿区百人町１丁目８−２５",
        "address_locality": "新宿区",
        "address_postcode": "169-0073"
      },
      "geometry": {
        "type": "Point",
        "coordinates": [
          139.7008467,
          35.6984731
        ]
      }
    },
    {
      "type": "Feature",
      "properties": {
        "id": "21c1d4c5-00da-4b50-bf86-0c8ccc9ac30a",
        "name": "ライオンズフィルム株式会社",
        "confidence": 0.6077162623405457,
        "address_freeform": "Tatekawa, 2 Chome−10−10 M・吉原ビル 3階",
        "address_locality": "墨田区",
        "address_postcode": "130-0023"
      },
      "geometry": {
        "type": "Point",
        "coordinates": [
          139.80295424,
          35.69154295
        ]
      }
    },
    {
      "type": "Feature",
      "properties": {
        "id": "220855d2-452b-49df-b5bd-ff52757f31c5",
        "name": "都立江東特別支援学校",
        "confidence": 0.9330283403396606,
        "address_freeform": "",
        "address_locality": "江東区",
        "address_postcode": "135-0016"
      },
      "geometry": {
        "type": "Point",
        "coordinates": [
          139.81778251,
          35.67366893
        ]
      }
    },
    {
      "type": "Feature",
      "properties": {
        "id": "2217c19c-25dd-4601-9323-5f109731fe00",
        "name": "マチナカデミアすみだ",
        "confidence": 0.8748790621757507,
        "address_freeform": "京島1-8-8",
        "address_locality": "墨田区",
        "address_postcode": "131-0046"
      },
      "geometry": {
        "type": "Point",
        "coordinates": [
          139.8056356,
          35.7119486
        ]
      }
    },
    {
      "type": "Feature",
      "properties": {
        "id": "2247e13c-6979-4ddf-8cef-7ed3299b8eab",
        "name": "きものレディ着付学院蒲田校",
        "confidence": 0.6882243752479553,
        "address_freeform": "東京都大田区西蒲田７丁目５−１３",
        "address_locality": "大田区",
        "address_postcode": "144-0051"
      },
      "geometry": {
        "type": "Point",
        "coordinates": [
          139.71502839,
          35.56387611
        ]
      }
    },
    {
      "type": "Feature",
      "properties": {
        "id": "225da09d-34f6-458b-9187-24514aaa18f6",
        "name": "レッセル・進学アカデミー都筑教室",
        "confidence": 0.8968492412567138,
        "address_freeform": "神奈川県横浜市都筑区荏田南５丁目８−１",
        "address_locality": "横浜市都筑区",
        "address_postcode": "224-0007"
      },
      "geometry": {
        "type": "Point",
        "coordinates": [
          139.56020585,
          35.54899056
        ]
      }
    },
    {
      "type": "Feature",
      "properties": {
        "id": "22c8cb80-ffba-44e0-b98d-be665101b306",
        "name": "麻雀クラブふじ二号店",
        "confidence": 0.6793224811553955,
        "address_freeform": "東京都大田区西蒲田７丁目５−１０",
        "address_locality": "大田区",
        "address_postcode": "144-0051"
      },
      "geometry": {
        "type": "Point",
        "coordinates": [
          139.71521966,
          35.56351544
        ]
      }
    },
    {
      "type": "Feature",
      "properties": {
        "id": "22da51d5-0be6-4879-bf30-016cc1cc80f1",
        "name": "Dream Tree English",
        "confidence": 0.5847793221473694,
        "address_freeform": "3-2-9 鵠沼海岸",
        "address_locality": "千代田区",
        "address_postcode": "251-0037"
      },
      "geometry": {
        "type": "Point",
        "coordinates": [
          139.7541342,
          35.6962547
        ]
      }
    },
    {
      "type": "Feature",
      "properties": {
        "id": "22e5784f-0f34-45ee-bce4-eaa5dc5f3239",
        "name": "Tokyo Sanritsu Academy",
        "confidence": 0.8156972527503967,
        "address_freeform": null,
        "address_locality": "世田谷区",
        "address_postcode": null
      },
      "geometry": {
        "type": "Point",
        "coordinates": [
          139.61363225701493,
          35.671566390022114
        ]
      }
    },
    {
      "type": "Feature",
      "properties": {
        "id": "23037402-3658-4944-8068-335af8977a69",
        "name": "学校法人高宮学園",
        "confidence": 0.5118226408958435,
        "address_freeform": "1 Chome-29-1 Yoyogi",
        "address_locality": "渋谷区",
        "address_postcode": "151-0053"
      },
      "geometry": {
        "type": "Point",
        "coordinates": [
          139.70131593,
          35.68240012
        ]
      }
    },
    {
      "type": "Feature",
      "properties": {
        "id": "231ba3d7-ff55-4c2e-a456-8f21888538e0",
        "name": "東京インターナショナルプリスクール二子玉川キャンパス",
        "confidence": 0.892982006072998,
        "address_freeform": "玉川2-13-3",
        "address_locality": "世田谷区",
        "address_postcode": "158-0094"
      },
      "geometry": {
        "type": "Point",
        "coordinates": [
          139.6302947402,
          35.613213401617
        ]
      }
    },
    {
      "type": "Feature",
      "properties": {
        "id": "233ce70c-aa9e-4c0b-91e1-87cac91ffc45",
        "name": "アゼリア幼児教育研究所",
        "confidence": 0.9194809794425964,
        "address_freeform": "西池袋５－１２－９",
        "address_locality": "豊島区",
        "address_postcode": "1710021"
      },
      "geometry": {
        "type": "Point",
        "coordinates": [
          139.70724,
          35.72937
        ]
      }
    },
    {
      "type": "Feature",
      "properties": {
        "id": "237f58a5-0677-4891-bfc3-f83204c82b59",
        "name": "メディックスボディバランスアカデミー",
        "confidence": 0.9188872575759888,
        "address_freeform": "東京都千代田区神田淡路町１丁目１−１",
        "address_locality": "千代田区",
        "address_postcode": "101-0063"
      },
      "geometry": {
        "type": "Point",
        "coordinates": [
          139.767054,
          35.695508
        ]
      }
    },
    {
      "type": "Feature",
      "properties": {
        "id": "238366f6-c06e-454f-ba6a-460e4db2bc47",
        "name": "観光戦略研究研修機構",
        "confidence": 0.7209027409553528,
        "address_freeform": "西新宿7-17-14　新宿源ビル5F",
        "address_locality": "新宿区",
        "address_postcode": "160-0023"
      },
      "geometry": {
        "type": "Point",
        "coordinates": [
          139.6973744,
          35.6964758
        ]
      }
    },
    {
      "type": "Feature",
      "properties": {
        "id": "23cdddd3-131b-4ee1-973a-d6780e79b186",
        "name": "SSI (Sake Service Institute International)",
        "confidence": 0.5858870148658752,
        "address_freeform": "堀船２丁目19-19",
        "address_locality": "北区",
        "address_postcode": "〒114-0004"
      },
      "geometry": {
        "type": "Point",
        "coordinates": [
          139.74662,
          35.75151
        ]
      }
    },
    {
      "type": "Feature",
      "properties": {
        "id": "23e09977-cba2-4270-80a7-cc53d84d20c9",
        "name": "スティームキャンパス 東雲キャナルコート",
        "confidence": 0.8263466954231262,
        "address_freeform": "東雲1-9-17 キャナルコート203",
        "address_locality": "江東区",
        "address_postcode": "135-0062"
      },
      "geometry": {
        "type": "Point",
        "coordinates": [
          139.8035567,
          35.6470478
        ]
      }
    },
    {
      "type": "Feature",
      "properties": {
        "id": "24030002-1e10-4e5f-b74a-e2b88feabefe",
        "name": "個太郎塾新小岩教室",
        "confidence": 0.8969030976295471,
        "address_freeform": "東京都葛飾区新小岩１丁目５１−１７",
        "address_locality": "葛飾区",
        "address_postcode": "124-0024"
      },
      "geometry": {
        "type": "Point",
        "coordinates": [
          139.86275125,
          35.7131903
        ]
      }
    },
    {
      "type": "Feature",
      "properties": {
        "id": "2429317b-bee3-40aa-b6bb-2b67fa3855bd",
        "name": "JCFL for international students",
        "confidence": 0.6706972122192383,
        "address_freeform": "東京都豊島区目白３丁目１−３０",
        "address_locality": "豊島区",
        "address_postcode": "171-0031"
      },
      "geometry": {
        "type": "Point",
        "coordinates": [
          139.6964942,
          35.7241836
        ]
      }
    },
    {
      "type": "Feature",
      "properties": {
        "id": "245b81ca-f1ce-409c-b6eb-70fec61fdd19",
        "name": "東京高校鵜の木グラウンド",
        "confidence": 0.8892712593078613,
        "address_freeform": "2 Chome-39 Unoki",
        "address_locality": "大田区",
        "address_postcode": "146-0091"
      },
      "geometry": {
        "type": "Point",
        "coordinates": [
          139.67480775,
          35.57392974
        ]
      }
    },
    {
      "type": "Feature",
      "properties": {
        "id": "24636dd3-4ea4-429c-9e53-89515a051170",
        "name": "髙志学舎",
        "confidence": 0.7869673371315002,
        "address_freeform": "Nakamarucho, 17−8 エクセル北池 １０１",
        "address_locality": "板橋区",
        "address_postcode": "173-0026"
      },
      "geometry": {
        "type": "Point",
        "coordinates": [
          139.70496547,
          35.74234221
        ]
      }
    },
    {
      "type": "Feature",
      "properties": {
        "id": "2493ec6e-9750-420c-b1fe-8a10ab030225",
        "name": "ヒューマン就活塾",
        "confidence": 0.9382100105285645,
        "address_freeform": "7 Chome-5-25 Nishishinjuku",
        "address_locality": "新宿区",
        "address_postcode": "160-0023"
      },
      "geometry": {
        "type": "Point",
        "coordinates": [
          139.69870703,
          35.69754803
        ]
      }
    },
    {
      "type": "Feature",
      "properties": {
        "id": "252a4bc5-9425-4e16-978e-a90605bcff4e",
        "name": "TAC",
        "confidence": 0.9864611029624939,
        "address_freeform": "Kyobashi, 1 Chome−12−2 住友生命八重洲東ビル 1F",
        "address_locality": "中央区",
        "address_postcode": "104-0031"
      },
      "geometry": {
        "type": "Point",
        "coordinates": [
          139.77267745,
          35.67818006
        ]
      }
    },
    {
      "type": "Feature",
      "properties": {
        "id": "25893e5e-cf08-43fb-8d28-f9069be0f560",
        "name": "Ishikawadai Building No. 1",
        "confidence": 0.44184058904647827,
        "address_freeform": "Ishikawadai Building 1, 1 Chome-1 Ishikawacho",
        "address_locality": "大田区",
        "address_postcode": "145-0061"
      },